{
  "-LKJwOEtR-xi1dhiRuwV" : {
    "actualizacion" : 1534725888524,
    "calificacion" : 0,
    "cre_id" : "PL/658/EXP/ES/2015",
    "direccion" : "Boulevard Insurgentes No. 1910",
    "lat" : "32.47641",
    "lng" : "-116.9214",
    "marca" : "pemex",
    "nombre" : "ESTACION DE SERVICIO CALAFIA, S.A. DE C.V.",
    "url" : "myimg"
  },
  "-LKJwOEvw98wUlixb55U" : {
    "actualizacion" : 1534725888524,
    "calificacion" : 0,
    "cre_id" : "PL/902/EXP/ES/2015",
    "direccion" : "Carretera Ixmiquilpan - Palmillas Km 58.5 Huichapan",
    "lat" : "20.3037",
    "lng" : "-99.74484",
    "marca" : "pemex",
    "nombre" : "DIGEPE, S.A. DE C.V. (07356)",
    "url" : "myimg"
  },
  "-LKJwOEw1o2fRwYl5NR_" : {
    "actualizacion" : 1534725888524,
    "calificacion" : 0,
    "cre_id" : "PL/760/EXP/ES/2015",
    "direccion" : "Avenida Adolfo López Mateos No. 1604",
    "lat" : "31.71947",
    "lng" : "-106.4514",
    "marca" : "pemex",
    "nombre" : "Diaz Gas, S.A. de C.V.",
    "url" : "myimg"
  },
  "-LKJwOEw1o2fRwYl5NRa" : {
    "actualizacion" : 1534725888524,
    "calificacion" : 0,
    "cre_id" : "PL/825/EXP/ES/2015",
    "direccion" : "Ricardo Flores Magón No. 950",
    "lat" : "20.71413",
    "lng" : "-103.3042",
    "marca" : "pemex",
    "nombre" : "COMBU-EXPRESS, S.A. DE C.V.",
    "url" : "myimg"
  },
  "-LKJwOExHUVztYCiFPf0" : {
    "actualizacion" : 1534725888524,
    "calificacion" : 0,
    "cre_id" : "PL/585/EXP/ES/2015",
    "direccion" : "Prolongación Rio Purificación No. 800 Esquina Oscar Alexander",
    "lat" : "26.03787",
    "lng" : "-98.29977",
    "marca" : "pemex",
    "nombre" : "PETROMAX, S.A. DE C.V.",
    "url" : "myimg"
  },
  "-LKJwOExHUVztYCiFPf1" : {
    "actualizacion" : 1534725888524,
    "calificacion" : 0,
    "cre_id" : "PL/842/EXP/ES/2015",
    "direccion" : "Calle Manuel Gutiérrez Nájera No. 3102",
    "lat" : "32.51342",
    "lng" : "-117.0715",
    "marca" : "pemex",
    "nombre" : "ESTACION RAEL, S. DE R.L. DE C.V.",
    "url" : "myimg"
  },
  "-LKJwOEybcAht7OKmt9-" : {
    "actualizacion" : 1534725888524,
    "calificacion" : 0,
    "cre_id" : "PL/371/EXP/ES/2015",
    "direccion" : "Carretera Al 20 de Noviembre No. 3005",
    "lat" : "25.7558",
    "lng" : "-108.9685",
    "marca" : "pemex",
    "nombre" : "MULTISERVICIOS LA PILARICA SA DE CV ",
    "url" : "myimg"
  },
  "-LKJwOEybcAht7OKmt90" : {
    "actualizacion" : 1534725888524,
    "calificacion" : 0,
    "cre_id" : "PL/439/EXP/ES/2015",
    "direccion" : "Carretera a Colombia No. 400",
    "lat" : "25.77202",
    "lng" : "-100.2918",
    "marca" : "pemex",
    "nombre" : "PETROMAX, S.A. DE C.V.",
    "url" : "myimg"
  },
  "-LKJwOEybcAht7OKmt91" : {
    "actualizacion" : 1534725888524,
    "calificacion" : 0,
    "cre_id" : "PL/860/EXP/ES/2015",
    "direccion" : "Avenida Rayón No. 876",
    "lat" : "31.86546",
    "lng" : "-116.6079",
    "marca" : "pemex",
    "nombre" : "ESTACION RAEL, S. DE R.L. DE C.V.",
    "url" : "myimg"
  },
  "-LKJwOEztjCLQ0pBk051" : {
    "actualizacion" : 1534725888524,
    "calificacion" : 0,
    "cre_id" : "PL/897/EXP/ES/2015",
    "direccion" : "Carretera Libre Tijuana - Ensenada No. 3109 Playa Encantada Playas de Rosarito",
    "lat" : "32.31202",
    "lng" : "-117.0457",
    "marca" : "pemex",
    "nombre" : "INMOBILIARIA ESCOGAS SA DE CV",
    "url" : "myimg"
  },
  "-LKJwOEztjCLQ0pBk052" : {
    "actualizacion" : 1534725888524,
    "calificacion" : 0,
    "cre_id" : "PL/561/EXP/ES/2015",
    "direccion" : "Avenida Pablo Livas No. 101",
    "lat" : "25.65562",
    "lng" : "-100.184",
    "marca" : "pemex",
    "nombre" : "PETROMAX, S.A. DE C.V.",
    "url" : "myimg"
  },
  "-LKJwOEztjCLQ0pBk053" : {
    "actualizacion" : 1534725888524,
    "calificacion" : 0,
    "cre_id" : "PL/797/EXP/ES/2015",
    "direccion" : "Boulevard Harold R. Pape No. 2103-A",
    "lat" : "26.92554",
    "lng" : "-101.4189",
    "marca" : "pemex",
    "nombre" : "AUTOSERVICIO BERLANGA S.A. DE C.V.",
    "url" : "myimg"
  },
  "-LKJwOF-lCNv1Hwp4oak" : {
    "actualizacion" : 1534725888524,
    "calificacion" : 0,
    "cre_id" : "PL/583/EXP/ES/2015",
    "direccion" : "Avenida Lauro Villar No. 7110 Esquina Los Cedros",
    "lat" : "25.83842",
    "lng" : "-97.44485",
    "marca" : "pemex",
    "nombre" : "PETROMAX, S.A. DE C.V.",
    "url" : "myimg"
  },
  "-LKJwOF-lCNv1Hwp4oal" : {
    "actualizacion" : 1534725888524,
    "calificacion" : 0,
    "cre_id" : "PL/366/EXP/ES/2015",
    "direccion" : "Carretera San Blas-Santa Cruz Km 13",
    "lat" : "21.4739",
    "lng" : "-105.1947",
    "marca" : "pemex",
    "nombre" : "GRUPO OCTANO, S.A. DE C.V.",
    "url" : "myimg"
  },
  "-LKJwOF07yeb7XYSG8UR" : {
    "actualizacion" : 1534725888524,
    "calificacion" : 0,
    "cre_id" : "PL/635/EXP/ES/2015",
    "direccion" : "Boulevard Sánchez Taboada No. 2685",
    "lat" : "32.5279",
    "lng" : "-117.0271",
    "marca" : "pemex",
    "nombre" : "CIRCULO DOS, S.A. DE C.V.",
    "url" : "myimg"
  },
  "-LKJwOF07yeb7XYSG8US" : {
    "actualizacion" : 1534725888524,
    "calificacion" : 0,
    "cre_id" : "PL/868/EXP/ES/2015",
    "direccion" : "Avenida Gustavo Baz S/N San Pedro Barrientos",
    "lat" : "19.58616",
    "lng" : "-99.1973",
    "marca" : "pemex",
    "nombre" : "Servicio Sevilla, S.A. de C.V.",
    "url" : "myimg"
  },
  "-LKJwOF07yeb7XYSG8UT" : {
    "actualizacion" : 1534725888524,
    "calificacion" : 0,
    "cre_id" : "PL/558/EXP/ES/2015",
    "direccion" : "Avenida Benito Juárez No. 1601",
    "lat" : "25.6788",
    "lng" : "-100.2365",
    "marca" : "pemex",
    "nombre" : "PETROMAX, S.A. DE C.V.",
    "url" : "myimg"
  },
  "-LKJwOF156UgcaBWhksk" : {
    "actualizacion" : 1534725888524,
    "calificacion" : 0,
    "cre_id" : "PL/887/EXP/ES/2015",
    "direccion" : "Carretera Internacional Km 1170 S/N Barrio de Fátima San Cristóbal de La Casas",
    "lat" : "16.73187",
    "lng" : "-92.65437",
    "marca" : "pemex",
    "nombre" : "GASOLINERA HUITEPEC, S.A. DE C.V.",
    "url" : "myimg"
  },
  "-LKJwOF156UgcaBWhksl" : {
    "actualizacion" : 1534725888524,
    "calificacion" : 0,
    "cre_id" : "PL/454/EXP/ES/2015",
    "direccion" : "Carretera a Matamoros Esquina Fraccionamiento Villareal",
    "lat" : "26.0139",
    "lng" : "-98.20425",
    "marca" : "pemex",
    "nombre" : "PETROMAX, S.A. DE C.V.",
    "url" : "myimg"
  },
  "-LKJwOF156UgcaBWhksm" : {
    "actualizacion" : 1534725888524,
    "calificacion" : 0,
    "cre_id" : "PL/890/EXP/ES/2015",
    "direccion" : "Prolongación Pino Suárez No. 126 Villas de San Francisco Durango",
    "lat" : "24.02956",
    "lng" : "-104.6217",
    "marca" : "pemex",
    "nombre" : "SUPER SERVICIO MIVASA SA DE CV",
    "url" : "myimg"
  },
  "-LKJwOF2GWDQmOf64g7T" : {
    "actualizacion" : 1534725888524,
    "calificacion" : 0,
    "cre_id" : "PL/756/EXP/ES/2015",
    "direccion" : "Carretera Saltillo- Monterrrey Km 17.722",
    "lat" : "25.57358",
    "lng" : "-100.9057",
    "marca" : "pemex",
    "nombre" : "SERVICIO SIERRA DE ARTEAGA SA DE CV",
    "url" : "myimg"
  },
  "-LKJwOF2GWDQmOf64g7U" : {
    "actualizacion" : 1534725888524,
    "calificacion" : 0,
    "cre_id" : "PL/795/EXP/ES/2015",
    "direccion" : "Nogales No. 4900 Fraccionamiento Atenas",
    "lat" : "28.73367",
    "lng" : "-106.1008",
    "marca" : "pemex",
    "nombre" : "COMBUSTIBLES Y LUBRICANTES ATENAS SA DE CV",
    "url" : "myimg"
  },
  "-LKJwOF2GWDQmOf64g7V" : {
    "actualizacion" : 1534725888524,
    "calificacion" : 0,
    "cre_id" : "PL/505/EXP/ES/2015",
    "direccion" : "Entronque Carretero Guzmán Autlán No. 50",
    "lat" : "19.77838",
    "lng" : "-103.9754",
    "marca" : "pemex",
    "nombre" : "GRUPO OCTANO, S.A. DE C.V.",
    "url" : "myimg"
  },
  "-LKJwOF3cBmtXcWdujz9" : {
    "actualizacion" : 1534725888524,
    "calificacion" : 0,
    "cre_id" : "PL/708/EXP/ES/2015",
    "direccion" : "Carretera Tijuana-Rosarito No. 9311-1b",
    "lat" : "32.45102",
    "lng" : "-117.0249",
    "marca" : "pemex",
    "nombre" : "Becktrop Operadora SA de CV",
    "url" : "myimg"
  },
  "-LKJwOF3cBmtXcWdujzA" : {
    "actualizacion" : 1534725888524,
    "calificacion" : 0,
    "cre_id" : "PL/562/EXP/ES/2015",
    "direccion" : "Avenida Diego Díaz de Berlanga No. 119",
    "lat" : "25.73174",
    "lng" : "-100.2726",
    "marca" : "pemex",
    "nombre" : "YLIGARZA S.A. DE C.V.",
    "url" : "myimg"
  },
  "-LKJwOF3cBmtXcWdujzB" : {
    "actualizacion" : 1534725888524,
    "calificacion" : 0,
    "cre_id" : "PL/636/EXP/ES/2015",
    "direccion" : "Salvador Díaz Mirón No. 7321",
    "lat" : "32.53171",
    "lng" : "-117.0466",
    "marca" : "pemex",
    "nombre" : "ESTACION LA VICTORIA, S.A. DE C.V.",
    "url" : "myimg"
  },
  "-LKJwOF43oNm-ndCad2-" : {
    "actualizacion" : 1534725888524,
    "calificacion" : 0,
    "cre_id" : "PL/516/EXP/ES/2015",
    "direccion" : "Carretera Monterrey - Saltillo No. 301",
    "lat" : "25.68592",
    "lng" : "-100.4652",
    "marca" : "pemex",
    "nombre" : "PETROMAX, S.A. DE C.V.",
    "url" : "myimg"
  },
  "-LKJwOF43oNm-ndCad20" : {
    "actualizacion" : 1534725888524,
    "calificacion" : 0,
    "cre_id" : "PL/638/EXP/ES/2015",
    "direccion" : "Boulevard Cuauhtémoc Sur No. 3658",
    "lat" : "32.51045",
    "lng" : "-117.0226",
    "marca" : "pemex",
    "nombre" : "ESTACION PUERTA DEL SUR, S.A. DE C.V.",
    "url" : "myimg"
  },
  "-LKJwOF59v6IA0DxXUIO" : {
    "actualizacion" : 1534725888524,
    "calificacion" : 0,
    "cre_id" : "PL/538/EXP/ES/2015",
    "direccion" : "Carretera Reynosa No. 251",
    "lat" : "25.66026",
    "lng" : "-100.1466",
    "marca" : "pemex",
    "nombre" : "PETROMAX, S.A. DE C.V.",
    "url" : "myimg"
  },
  "-LKJwOF59v6IA0DxXUIP" : {
    "actualizacion" : 1534725888524,
    "calificacion" : 0,
    "cre_id" : "PL/619/EXP/ES/2015",
    "direccion" : "Boulevard Jesús Valdés Sanchez No. 1541",
    "lat" : "25.44151",
    "lng" : "-100.9274",
    "marca" : "pemex",
    "nombre" : "PETROMAX, S.A. DE C.V.",
    "url" : "myimg"
  },
  "-LKJwOF6AEPA0HzndS87" : {
    "actualizacion" : 1534725888524,
    "calificacion" : 0,
    "cre_id" : "PL/443/EXP/ES/2015",
    "direccion" : "Avenida Central No. 215-B Y Callejón San Juan Esquina Mil Cumbres",
    "lat" : "26.06297",
    "lng" : "-98.32712",
    "marca" : "pemex",
    "nombre" : "PETROMAX, S.A. DE C.V.",
    "url" : "myimg"
  },
  "-LKJwOF86K12PkLs9d4O" : {
    "actualizacion" : 1534725888524,
    "calificacion" : 0,
    "cre_id" : "PL/689/EXP/ES/2015",
    "direccion" : "Carretera Federal Manzanillo Colima Km 307+500",
    "lat" : "19.03549",
    "lng" : "-104.2109",
    "marca" : "pemex",
    "nombre" : "RAMCAL SA DE CV",
    "url" : "myimg"
  },
  "-LKJwOF9UDyIyu6H_D0j" : {
    "actualizacion" : 1534725888524,
    "calificacion" : 0,
    "cre_id" : "PL/650/EXP/ES/2015",
    "direccion" : "Calzada de Tlalpan No. 2803",
    "lat" : "19.3231",
    "lng" : "-99.13844",
    "marca" : "pemex",
    "nombre" : "Gasomac, S.A. de C.V.",
    "url" : "myimg"
  },
  "-LKJwOFAwdBD6q4LUzkd" : {
    "actualizacion" : 1534725888524,
    "calificacion" : 0,
    "cre_id" : "PL/866/EXP/ES/2015",
    "direccion" : "Avenida Periférico Sur No. 5550",
    "lat" : "19.30205",
    "lng" : "-99.16505",
    "marca" : "pemex",
    "nombre" : "Autoconsumo los Pinos, S.A. de C.V. ",
    "url" : "myimg"
  },
  "-LKJwOFAwdBD6q4LUzke" : {
    "actualizacion" : 1534725888524,
    "calificacion" : 0,
    "cre_id" : "PL/380/EXP/ES/2015",
    "direccion" : "S. Degollado No. 1799 Sur",
    "lat" : "25.77298",
    "lng" : "-109.0001",
    "marca" : "pemex",
    "nombre" : "SERVICIOS DEL VALLE DEL FUERTE, S.A. DE C.V.",
    "url" : "myimg"
  },
  "-LKJwOFAwdBD6q4LUzkf" : {
    "actualizacion" : 1534725888524,
    "calificacion" : 0,
    "cre_id" : "PL/764/EXP/ES/2015",
    "direccion" : "Carretera Estatal a Gral. Cepeda No. 2731",
    "lat" : "25.2563",
    "lng" : "-101.1169",
    "marca" : "pemex",
    "nombre" : "servicios energeticos plaza industrial sa de cv ",
    "url" : "myimg"
  },
  "-LKJwOFAwdBD6q4LUzkg" : {
    "actualizacion" : 1534725888524,
    "calificacion" : 0,
    "cre_id" : "PL/851/EXP/ES/2015",
    "direccion" : "Carretera Aguascalientes - Zacatecas Km 28.5",
    "lat" : "22.12339",
    "lng" : "-102.2834",
    "marca" : "pemex",
    "nombre" : "SERVICIOS GASOLINEROS DE MEXICO S.A. DE C.V.",
    "url" : "myimg"
  },
  "-LKJwOFBaYZ7Dy6yr0eY" : {
    "actualizacion" : 1534725888524,
    "calificacion" : 0,
    "cre_id" : "PL/754/EXP/ES/2015",
    "direccion" : "Libramiento Sur Oriente No. 3430",
    "lat" : "16.73384",
    "lng" : "-93.09296",
    "marca" : "pemex",
    "nombre" : "OLEUM GAS S.A. DE C.V.",
    "url" : "myimg"
  },
  "-LKJwOFBaYZ7Dy6yr0eZ" : {
    "actualizacion" : 1534725888524,
    "calificacion" : 0,
    "cre_id" : "PL/397/EXP/ES/2015",
    "direccion" : "Ignacio Zaragoza Y Justo Sierra No. 24",
    "lat" : "25.96616",
    "lng" : "-109.2961",
    "marca" : "pemex",
    "nombre" : "SERVICIOS DEL VALLE DEL FUERTE, S.A. DE C.V.",
    "url" : "myimg"
  },
  "-LKJwOFBaYZ7Dy6yr0e_" : {
    "actualizacion" : 1534725888524,
    "calificacion" : 0,
    "cre_id" : "PL/823/EXP/ES/2015",
    "direccion" : "Carretera Villa del Carbón No. 332",
    "lat" : "19.64046",
    "lng" : "-99.36308",
    "marca" : "pemex",
    "nombre" : "Gasolinería Cid, S.A. de C.V.",
    "url" : "myimg"
  },
  "-LKJwOFCWQQ7xuz5itZ_" : {
    "actualizacion" : 1534725888524,
    "calificacion" : 0,
    "cre_id" : "PL/627/EXP/ES/2015",
    "direccion" : "Carretera 57 Km 16+800",
    "lat" : "19.74912",
    "lng" : "-99.11606",
    "marca" : "pemex",
    "nombre" : "Gasolinería Perseo, S.A. de C.V.",
    "url" : "myimg"
  },
  "-LKJwOFCWQQ7xuz5itZa" : {
    "actualizacion" : 1534725888524,
    "calificacion" : 0,
    "cre_id" : "PL/408/EXP/ES/2015",
    "direccion" : "Boulevard Pedro Anaya 805 Poniente Francisco Villa",
    "lat" : "25.9744",
    "lng" : "-109.2856",
    "marca" : "pemex",
    "nombre" : "MULTISERVICIOS LA PILARICA SA DE CV ",
    "url" : "myimg"
  },
  "-LKJwOFCWQQ7xuz5itZb" : {
    "actualizacion" : 1534725888524,
    "calificacion" : 0,
    "cre_id" : "PL/580/EXP/ES/2015",
    "direccion" : "Boulevard Hidalgo No. 422 Esquina Calle San Jacinto",
    "lat" : "26.06025",
    "lng" : "-98.35571",
    "marca" : "pemex",
    "nombre" : "PETROMAX, S.A. DE C.V.",
    "url" : "myimg"
  },
  "-LKJwOFDqY-aUQ_t2pFl" : {
    "actualizacion" : 1534725888524,
    "calificacion" : 0,
    "cre_id" : "PL/489/EXP/ES/2015",
    "direccion" : "Carretera Miguel Alemán No. 1000",
    "lat" : "25.7805",
    "lng" : "-100.1759",
    "marca" : "pemex",
    "nombre" : "PETROMAX, S.A. DE C.V.",
    "url" : "myimg"
  },
  "-LKJwOFDqY-aUQ_t2pFm" : {
    "actualizacion" : 1534725888524,
    "calificacion" : 0,
    "cre_id" : "PL/465/EXP/ES/2015",
    "direccion" : "Carretera a Base Aérea Militar No. 3353",
    "lat" : "20.73139",
    "lng" : "-103.4519",
    "marca" : "pemex",
    "nombre" : "PETROMAX, S.A. DE C.V.",
    "url" : "myimg"
  },
  "-LKJwOFDqY-aUQ_t2pFn" : {
    "actualizacion" : 1534725888524,
    "calificacion" : 0,
    "cre_id" : "PL/724/EXP/ES/2015",
    "direccion" : "Avenida Convención 1914 Norte No. 1902",
    "lat" : "21.89668",
    "lng" : "-102.3053",
    "marca" : "pemex",
    "nombre" : "SERVICIO AVENIDA, S.A. DE C.V.",
    "url" : "myimg"
  },
  "-LKJwOFDqY-aUQ_t2pFo" : {
    "actualizacion" : 1534725888524,
    "calificacion" : 0,
    "cre_id" : "PL/829/EXP/ES/2015",
    "direccion" : "Boulevard Juan José Torres Landa No. 1145",
    "lat" : "21.09879",
    "lng" : "-101.6677",
    "marca" : "pemex",
    "nombre" : "ESTACION DE SERVICIO LEON, S.DER.L. DE C.V.",
    "url" : "myimg"
  },
  "-LKJwOFEEZ60D7IMGzjv" : {
    "actualizacion" : 1534725888524,
    "calificacion" : 0,
    "cre_id" : "PL/584/EXP/ES/2015",
    "direccion" : "Avenida Misión de San Diego Y Calle Novena No. 3499",
    "lat" : "32.63511",
    "lng" : "-115.3865",
    "marca" : "pemex",
    "nombre" : "PETROMAX, S.A. DE C.V.",
    "url" : "myimg"
  },
  "-LKJwOFEEZ60D7IMGzjw" : {
    "actualizacion" : 1534725888524,
    "calificacion" : 0,
    "cre_id" : "PL/710/EXP/ES/2015",
    "direccion" : "Km 144+000 de La Carretera Tecate-Tijuana",
    "lat" : "32.49946",
    "lng" : "-116.7158",
    "marca" : "pemex",
    "nombre" : "ESTACION DE SERVICIO PITS, S. DE R.L. DE C.V.",
    "url" : "myimg"
  },
  "-LKJwOFEEZ60D7IMGzjx" : {
    "actualizacion" : 1534725888524,
    "calificacion" : 0,
    "cre_id" : "PL/858/EXP/ES/2015",
    "direccion" : "Antonio Peralta No. 4325",
    "lat" : "31.5649",
    "lng" : "-106.3973",
    "marca" : "pemex",
    "nombre" : "GRUPO GOCALVI SA DE CV",
    "url" : "myimg"
  },
  "-LKJwOFFJHFt_4kWHv9W" : {
    "actualizacion" : 1534725888524,
    "calificacion" : 0,
    "cre_id" : "PL/690/EXP/ES/2015",
    "direccion" : "Tiburón No. 1",
    "lat" : "19.07791",
    "lng" : "-104.288",
    "marca" : "pemex",
    "nombre" : "Socombumex, S.A. de C.V.",
    "url" : "myimg"
  },
  "-LKJwOFFJHFt_4kWHv9X" : {
    "actualizacion" : 1534725888524,
    "calificacion" : 0,
    "cre_id" : "PL/699/EXP/ES/2015",
    "direccion" : "Avenida de Las Bombas S/N",
    "lat" : "19.60755",
    "lng" : "-98.99508",
    "marca" : "pemex",
    "nombre" : "Gasolinería Segovia, S.A. de C.V.",
    "url" : "myimg"
  },
  "-LKJwOFGLrltqT2Ph8l9" : {
    "actualizacion" : 1534725888524,
    "calificacion" : 0,
    "cre_id" : "PL/786/EXP/ES/2015",
    "direccion" : "Carretera Transpeninsular No. 101",
    "lat" : "31.7838",
    "lng" : "-116.5917",
    "marca" : "pemex",
    "nombre" : "SERVICIO LOS OLIVOS S.A. DE C.V.(E4394)",
    "url" : "myimg"
  },
  "-LKJwOFGLrltqT2Ph8lA" : {
    "actualizacion" : 1534725888524,
    "calificacion" : 0,
    "cre_id" : "PL/402/EXP/ES/2015",
    "direccion" : "Boulevard Juan de Dios Batiz No. 346 Poniente",
    "lat" : "25.80147",
    "lng" : "-108.9855",
    "marca" : "pemex",
    "nombre" : "MULTISERVICIOS LA PILARICA SA DE CV ",
    "url" : "myimg"
  },
  "-LKJwOFHp8VUXiFpXzC5" : {
    "actualizacion" : 1534725888524,
    "calificacion" : 0,
    "cre_id" : "PL/405/EXP/ES/2015",
    "direccion" : "Avenida Adolfo López Mateos No. 57",
    "lat" : "19.79169",
    "lng" : "-100.9704",
    "marca" : "pemex",
    "nombre" : "GRUPO OCTANO, S.A. DE C.V.",
    "url" : "myimg"
  },
  "-LKJwOFHp8VUXiFpXzC6" : {
    "actualizacion" : 1534725888524,
    "calificacion" : 0,
    "cre_id" : "PL/590/EXP/ES/2015",
    "direccion" : "Evaristo Caballero No. 3299",
    "lat" : "25.82625",
    "lng" : "-100.2963",
    "marca" : "pemex",
    "nombre" : "PETROMAX, S.A. DE C.V.",
    "url" : "myimg"
  },
  "-LKJwOFHp8VUXiFpXzC7" : {
    "actualizacion" : 1534725888524,
    "calificacion" : 0,
    "cre_id" : "PL/417/EXP/ES/2015",
    "direccion" : "Avenida México No. 788",
    "lat" : "21.52222",
    "lng" : "-104.8868",
    "marca" : "pemex",
    "nombre" : "GRUPO OCTANO, S.A. DE C.V.",
    "url" : "myimg"
  },
  "-LKJwOFIjy-rUpyBlxK4" : {
    "actualizacion" : 1534725888524,
    "calificacion" : 0,
    "cre_id" : "PL/820/EXP/ES/2015",
    "direccion" : "Avenida Recursos Hidráulicos No. 240",
    "lat" : "19.67871",
    "lng" : "-99.10838",
    "marca" : "pemex",
    "nombre" : "Inmobiliaria Corredor Tultitlán, S.A. de C.V. ",
    "url" : "myimg"
  },
  "-LKJwOFIjy-rUpyBlxK5" : {
    "actualizacion" : 1534725888524,
    "calificacion" : 0,
    "cre_id" : "PL/601/EXP/ES/2015",
    "direccion" : "Calzada Héctor Terán No. 1100",
    "lat" : "32.60843",
    "lng" : "-115.4722",
    "marca" : "pemex",
    "nombre" : "PETROMAX, S.A. DE C.V.",
    "url" : "myimg"
  },
  "-LKJwOFIjy-rUpyBlxK6" : {
    "actualizacion" : 1534725888524,
    "calificacion" : 0,
    "cre_id" : "PL/553/EXP/ES/2015",
    "direccion" : "Vía José López Portillo Km 26.50 S/N Esquina Canosas",
    "lat" : "19.63609",
    "lng" : "-99.10677",
    "marca" : "pemex",
    "nombre" : "PETROMAX, S.A. DE C.V.",
    "url" : "myimg"
  },
  "-LKJwOFJR8F6c-CiOtlc" : {
    "actualizacion" : 1534725888524,
    "calificacion" : 0,
    "cre_id" : "PL/373/EXP/ES/2015",
    "direccion" : "Avenida Tecnológico No. 4728",
    "lat" : "21.47011",
    "lng" : "-104.8489",
    "marca" : "pemex",
    "nombre" : "GRUPO OCTANO, S.A. DE C.V.",
    "url" : "myimg"
  },
  "-LKJwOFJR8F6c-CiOtld" : {
    "actualizacion" : 1534725888524,
    "calificacion" : 0,
    "cre_id" : "PL/451/EXP/ES/2015",
    "direccion" : "Carretera Miguel Alemán No. 610",
    "lat" : "25.73217",
    "lng" : "-100.2104",
    "marca" : "pemex",
    "nombre" : "PETROMAX, S.A. DE C.V.",
    "url" : "myimg"
  },
  "-LKJwOFJR8F6c-CiOtle" : {
    "actualizacion" : 1534725888524,
    "calificacion" : 0,
    "cre_id" : "PL/892/EXP/ES/2015",
    "direccion" : "Km 11.2 Carretera Colima - Manzanillo",
    "lat" : "19.14014",
    "lng" : "-103.7721",
    "marca" : "pemex",
    "nombre" : "CRUCERO LAS GOLONDRINAS,SA DE CV",
    "url" : "myimg"
  },
  "-LKJwOFJR8F6c-CiOtlf" : {
    "actualizacion" : 1534725888524,
    "calificacion" : 0,
    "cre_id" : "PL/707/EXP/ES/2015",
    "direccion" : "Boulevard Gustavo Díaz Ordaz No. 15260",
    "lat" : "32.49127",
    "lng" : "-116.953",
    "marca" : "pemex",
    "nombre" : "Becktrop Operadora SA de CV",
    "url" : "myimg"
  },
  "-LKJwOFKs2mb-HLeHrGl" : {
    "actualizacion" : 1534725888524,
    "calificacion" : 0,
    "cre_id" : "PL/594/EXP/ES/2015",
    "direccion" : "Carretera Apodaca-Benito Juárez No. 1101",
    "lat" : "25.70155",
    "lng" : "-100.1302",
    "marca" : "pemex",
    "nombre" : "PETROMAX, S.A. DE C.V.",
    "url" : "myimg"
  },
  "-LKJwOFKs2mb-HLeHrGm" : {
    "actualizacion" : 1534725888524,
    "calificacion" : 0,
    "cre_id" : "PL/660/EXP/ES/2015",
    "direccion" : "Calle Vía Rápida Poniente No. 14329",
    "lat" : "32.51104",
    "lng" : "-116.9663",
    "marca" : "pemex",
    "nombre" : "ESTACION RAEL, S. DE R.L. DE C.V.",
    "url" : "myimg"
  },
  "-LKJwOFKs2mb-HLeHrGn" : {
    "actualizacion" : 1534725888524,
    "calificacion" : 0,
    "cre_id" : "PL/365/EXP/ES/2015",
    "direccion" : "Juárez No. 13 Oriente",
    "lat" : "21.54249",
    "lng" : "-105.2828",
    "marca" : "pemex",
    "nombre" : "GRUPO OCTANO, S.A. DE C.V.",
    "url" : "myimg"
  },
  "-LKJwOFLN3gZ8cxQaqEG" : {
    "actualizacion" : 1534725888524,
    "calificacion" : 0,
    "cre_id" : "PL/845/EXP/ES/2015",
    "direccion" : "Avenida Aguascalientes No. 782",
    "lat" : "21.91625",
    "lng" : "-102.2924",
    "marca" : "pemex",
    "nombre" : "ESTACION DE SERVICIO AUTOMOTRIZ DEL NORTE SA DE CV",
    "url" : "myimg"
  },
  "-LKJwOFLN3gZ8cxQaqEH" : {
    "actualizacion" : 1534725888524,
    "calificacion" : 0,
    "cre_id" : "PL/685/EXP/ES/2015",
    "direccion" : "H. Colegio Militar No. 490",
    "lat" : "29.30929",
    "lng" : "-100.9351",
    "marca" : "pemex",
    "nombre" : "SERVICIO CIBOLA, S.A. DE C.V.",
    "url" : "myimg"
  },
  "-LKJwOFM2c6HNhhtL0Rl" : {
    "actualizacion" : 1534725888524,
    "calificacion" : 0,
    "cre_id" : "PL/577/EXP/ES/2015",
    "direccion" : "Boulevard Torreón - Matamoros No. 9100",
    "lat" : "25.53419",
    "lng" : "-103.3228",
    "marca" : "pemex",
    "nombre" : "PETROMAX, S.A. DE C.V.",
    "url" : "myimg"
  },
  "-LKJwOFM2c6HNhhtL0Rm" : {
    "actualizacion" : 1534725888524,
    "calificacion" : 0,
    "cre_id" : "PL/655/EXP/ES/2015",
    "direccion" : "Emiliano Zapata No. 505",
    "lat" : "22.14957",
    "lng" : "-102.4106",
    "marca" : "pemex",
    "nombre" : "MULTISERVICIOS SIGAS S.A. DE C.V.",
    "url" : "myimg"
  },
  "-LKJwOFM2c6HNhhtL0Rn" : {
    "actualizacion" : 1534725888524,
    "calificacion" : 0,
    "cre_id" : "PL/374/EXP/ES/2015",
    "direccion" : "Boulevard Solidaridad No. 4731 Sur",
    "lat" : "25.73669",
    "lng" : "-109.0138",
    "marca" : "pemex",
    "nombre" : "SERVICIOS DEL VALLE DEL FUERTE, S.A. DE C.V.",
    "url" : "myimg"
  },
  "-LKJwOFM2c6HNhhtL0Ro" : {
    "actualizacion" : 1534725888524,
    "calificacion" : 0,
    "cre_id" : "PL/592/EXP/ES/2015",
    "direccion" : "Carretera Reynosa- Monterrey Km 203",
    "lat" : "26.04917",
    "lng" : "-98.38633",
    "marca" : "pemex",
    "nombre" : "PETROMAX, S.A. DE C.V.",
    "url" : "myimg"
  },
  "-LKJwOFNIm186umPaYtA" : {
    "actualizacion" : 1534725888524,
    "calificacion" : 0,
    "cre_id" : "PL/879/EXP/ES/2015",
    "direccion" : "Boulevard Adolfo Ruíz Cortines No. 7-A",
    "lat" : "19.55827",
    "lng" : "-99.25086",
    "marca" : "pemex",
    "nombre" : "Servicio Vega Atizapan, S.A. de C.V.",
    "url" : "myimg"
  },
  "-LKJwOFNIm186umPaYtB" : {
    "actualizacion" : 1534725888524,
    "calificacion" : 0,
    "cre_id" : "PL/686/EXP/ES/2015",
    "direccion" : "Boulevard Díaz Ordaz No. 1460",
    "lat" : "32.50455",
    "lng" : "-116.977",
    "marca" : "pemex",
    "nombre" : "ESTACION RAEL, S. DE R.L. DE C.V.",
    "url" : "myimg"
  },
  "-LKJwOFNIm186umPaYtC" : {
    "actualizacion" : 1534725888524,
    "calificacion" : 0,
    "cre_id" : "PL/571/EXP/ES/2015",
    "direccion" : "Avenida México No. 100",
    "lat" : "25.72328",
    "lng" : "-100.1915",
    "marca" : "pemex",
    "nombre" : "PETROMAX, S.A. DE C.V.",
    "url" : "myimg"
  },
  "-LKJwOFObU9bD24fmWxP" : {
    "actualizacion" : 1534725888524,
    "calificacion" : 0,
    "cre_id" : "PL/812/EXP/ES/2015",
    "direccion" : "Boulevard Gustavo Díaz Ordaz No. 2000",
    "lat" : "25.52635",
    "lng" : "-100.941",
    "marca" : "pemex",
    "nombre" : "ESTACION RAMOS, S.A. DE C.V.",
    "url" : "myimg"
  },
  "-LKJwOFObU9bD24fmWxQ" : {
    "actualizacion" : 1534725888524,
    "calificacion" : 0,
    "cre_id" : "PL/477/EXP/ES/2015",
    "direccion" : "Avenida Constituyentes No. 510 Esquina Avenida Casa Blanca",
    "lat" : "25.85833",
    "lng" : "-97.53786",
    "marca" : "pemex",
    "nombre" : "PETROMAX, S.A. DE C.V.",
    "url" : "myimg"
  },
  "-LKJwOFObU9bD24fmWxR" : {
    "actualizacion" : 1534725888524,
    "calificacion" : 0,
    "cre_id" : "PL/841/EXP/ES/2015",
    "direccion" : "Boulevard Adolfo López Mateos No. 902",
    "lat" : "21.12003",
    "lng" : "-101.6691",
    "marca" : "pemex",
    "nombre" : "ESTACION DE SERVICIO LEON, S.DER.L. DE C.V.",
    "url" : "myimg"
  },
  "-LKJwOFP1FS4q2GRfH1z" : {
    "actualizacion" : 1534725888524,
    "calificacion" : 0,
    "cre_id" : "PL/497/EXP/ES/2015",
    "direccion" : "Autopista México-Guadalajara Km 202+650 Lado Sur S/N",
    "lat" : "19.90187",
    "lng" : "-100.7924",
    "marca" : "pemex",
    "nombre" : "GRUPO OCTANO, S.A. DE C.V.",
    "url" : "myimg"
  },
  "-LKJwOFP1FS4q2GRfH2-" : {
    "actualizacion" : 1534725888524,
    "calificacion" : 0,
    "cre_id" : "PL/517/EXP/ES/2015",
    "direccion" : "Avenida Eloy Cavazos S/N",
    "lat" : "25.64484",
    "lng" : "-100.1696",
    "marca" : "pemex",
    "nombre" : "PETROMAX, S.A. DE C.V.",
    "url" : "myimg"
  },
  "-LKJwOFQvRTxUke9I5XB" : {
    "actualizacion" : 1534725888524,
    "calificacion" : 0,
    "cre_id" : "PL/833/EXP/ES/2015",
    "direccion" : "Avenida de Los Nogales No. 392",
    "lat" : "31.27435",
    "lng" : "-110.93",
    "marca" : "pemex",
    "nombre" : "PETROLIFEROS LA TERRITORIAL, S. DE R.L. DE C.V.",
    "url" : "myimg"
  },
  "-LKJwOFQvRTxUke9I5XC" : {
    "actualizacion" : 1534725888524,
    "calificacion" : 0,
    "cre_id" : "PL/427/EXP/ES/2015",
    "direccion" : "Avenida San Pedro No. 100",
    "lat" : "25.67366",
    "lng" : "-100.3682",
    "marca" : "pemex",
    "nombre" : "PETROMAX, S.A. DE C.V.",
    "url" : "myimg"
  },
  "-LKJwOFSPkfXElakjcFO" : {
    "actualizacion" : 1534725888524,
    "calificacion" : 0,
    "cre_id" : "PL/492/EXP/ES/2015",
    "direccion" : "Gaspar Castaño No. 1000",
    "lat" : "25.71746",
    "lng" : "-100.1685",
    "marca" : "pemex",
    "nombre" : "PETROMAX, S.A. DE C.V.",
    "url" : "myimg"
  },
  "-LKJwOFTDxDKNG1NZewQ" : {
    "actualizacion" : 1534725888524,
    "calificacion" : 0,
    "cre_id" : "PL/774/EXP/ES/2015",
    "direccion" : "Calzada Miguel Hidalgo No. 110",
    "lat" : "20.94723",
    "lng" : "-101.4349",
    "marca" : "pemex",
    "nombre" : "SERVICIO DEL CENTRO HIDALGO SA DE CV ",
    "url" : "myimg"
  },
  "-LKJwOFTDxDKNG1NZewR" : {
    "actualizacion" : 1534725888524,
    "calificacion" : 0,
    "cre_id" : "PL/639/EXP/ES/2015",
    "direccion" : "Avenida Mar Kara No. 169 Y Segunda",
    "lat" : "32.53289",
    "lng" : "-117.0602",
    "marca" : "pemex",
    "nombre" : "SERV.EL TRIANGULO DEL REFUGIO,S.DER.L.DEC.V.",
    "url" : "myimg"
  },
  "-LKJwOFUMw6g8cNCkw3p" : {
    "actualizacion" : 1534725888524,
    "calificacion" : 0,
    "cre_id" : "PL/779/EXP/ES/2015",
    "direccion" : "Matamoros No. 833",
    "lat" : "26.91485",
    "lng" : "-101.4206",
    "marca" : "pemex",
    "nombre" : "AMC COMBUSTIBLES Y LUBRICANTES S.A. DE C.V.",
    "url" : "myimg"
  },
  "-LKJwOFUMw6g8cNCkw3q" : {
    "actualizacion" : 1534725888524,
    "calificacion" : 0,
    "cre_id" : "PL/796/EXP/ES/2015",
    "direccion" : "Carretera a Cd. Acuña Km 2",
    "lat" : "28.70405",
    "lng" : "-100.5448",
    "marca" : "pemex",
    "nombre" : "SERVICIO RAMA, S.A. DE C.V.",
    "url" : "myimg"
  },
  "-LKJwOFUMw6g8cNCkw3r" : {
    "actualizacion" : 1534725888524,
    "calificacion" : 0,
    "cre_id" : "PL/448/EXP/ES/2015",
    "direccion" : "Carretera a Colombia No. 3100",
    "lat" : "25.81873",
    "lng" : "-100.2944",
    "marca" : "pemex",
    "nombre" : "PETROMAX, S.A. DE C.V.",
    "url" : "myimg"
  },
  "-LKJwOFV4X2xILO8rwFP" : {
    "actualizacion" : 1534725888524,
    "calificacion" : 0,
    "cre_id" : "PL/792/EXP/ES/2015",
    "direccion" : "Calle Punta El Diablo No. 19452",
    "lat" : "32.49886",
    "lng" : "-116.917",
    "marca" : "pemex",
    "nombre" : "Servicio Ravello S.A de C.V.",
    "url" : "myimg"
  },
  "-LKJwOFV4X2xILO8rwFQ" : {
    "actualizacion" : 1534725888524,
    "calificacion" : 0,
    "cre_id" : "PL/849/EXP/ES/2015",
    "direccion" : "Calzada Presidente Venustiano Carranza No. 1500",
    "lat" : "32.63718",
    "lng" : "-115.3992",
    "marca" : "pemex",
    "nombre" : "ESTACION RAEL, S. DE R.L. DE C.V.",
    "url" : "myimg"
  },
  "-LKJwOFV4X2xILO8rwFR" : {
    "actualizacion" : 1534725888524,
    "calificacion" : 0,
    "cre_id" : "PL/490/EXP/ES/2015",
    "direccion" : "Prolongación Carlos Pacheco No. 701",
    "lat" : "28.65146",
    "lng" : "-106.0694",
    "marca" : "pemex",
    "nombre" : "PETROMAX, S.A. DE C.V.",
    "url" : "myimg"
  },
  "-LKJwOFWq02vp3V6Y4Wv" : {
    "actualizacion" : 1534725888524,
    "calificacion" : 0,
    "cre_id" : "PL/680/EXP/ES/2015",
    "direccion" : "Paseo de Tijuana No. 402",
    "lat" : "32.51353",
    "lng" : "-117.1202",
    "marca" : "pemex",
    "nombre" : "INMOBILIARIA ANADECA, S.A. DE C.V.",
    "url" : "myimg"
  },
  "-LKJwOFWq02vp3V6Y4Ww" : {
    "actualizacion" : 1534725888524,
    "calificacion" : 0,
    "cre_id" : "PL/413/EXP/ES/2015",
    "direccion" : "Boulevard Jiquilpan No. 1699 Poniente",
    "lat" : "25.81053",
    "lng" : "-109.0028",
    "marca" : "pemex",
    "nombre" : "SERVICIOS DEL VALLE DEL FUERTE, S.A. DE C.V.",
    "url" : "myimg"
  },
  "-LKJwOFWq02vp3V6Y4Wx" : {
    "actualizacion" : 1534725888525,
    "calificacion" : 0,
    "cre_id" : "PL/766/EXP/ES/2015",
    "direccion" : "Avenida Aguascalientes Oriente No. 2074",
    "lat" : "21.89202",
    "lng" : "-102.2631",
    "marca" : "pemex",
    "nombre" : "MARA ESTACION DE SERVICIOS SA DE CV",
    "url" : "myimg"
  },
  "-LKJwOFXWgzVSnCyRgGi" : {
    "actualizacion" : 1534725888525,
    "calificacion" : 0,
    "cre_id" : "PL/617/EXP/ES/2015",
    "direccion" : "Boulevard Tepic Xalisco No. 142",
    "lat" : "21.49442",
    "lng" : "-104.8968",
    "marca" : "pemex",
    "nombre" : "GRUPO OCTANO, S.A. DE C.V.",
    "url" : "myimg"
  },
  "-LKJwOFXWgzVSnCyRgGj" : {
    "actualizacion" : 1534725888525,
    "calificacion" : 0,
    "cre_id" : "PL/713/EXP/ES/2015",
    "direccion" : "Carretera Nacional Victoria - Monterrey Km 9.5 904",
    "lat" : "23.82137",
    "lng" : "-99.12276",
    "marca" : "pemex",
    "nombre" : "SERVICIO OROZCO SA DE CV",
    "url" : "myimg"
  },
  "-LKJwOFXWgzVSnCyRgGk" : {
    "actualizacion" : 1534725888525,
    "calificacion" : 0,
    "cre_id" : "PL/770/EXP/ES/2015",
    "direccion" : "Avenida Ignacio Sandoval No. 1555",
    "lat" : "19.25796",
    "lng" : "-103.7087",
    "marca" : "pemex",
    "nombre" : "Servicio Puerta de Hierro S.A. de C.V.",
    "url" : "myimg"
  },
  "-LKJwOFXWgzVSnCyRgGl" : {
    "actualizacion" : 1534725888525,
    "calificacion" : 0,
    "cre_id" : "PL/835/EXP/ES/2015",
    "direccion" : "Avenida Central Lt. 1 Mz-A S/N",
    "lat" : "19.57863",
    "lng" : "-99.02091",
    "marca" : "pemex",
    "nombre" : "Gasolinería Real Madeira, S.A. de C.V.",
    "url" : "myimg"
  },
  "-LKJwOFYyN5MUd7_srU2" : {
    "actualizacion" : 1534725888525,
    "calificacion" : 0,
    "cre_id" : "PL/476/EXP/ES/2015",
    "direccion" : "Boulevard Centenario de Torreón No. 7025",
    "lat" : "25.43487",
    "lng" : "-100.9133",
    "marca" : "pemex",
    "nombre" : "PETROMAX, S.A. DE C.V.",
    "url" : "myimg"
  },
  "-LKJwOFYyN5MUd7_srU3" : {
    "actualizacion" : 1534725888525,
    "calificacion" : 0,
    "cre_id" : "PL/483/EXP/ES/2015",
    "direccion" : "Décima Esquina Con Boulevard Las Fuentes No. 115",
    "lat" : "26.06835",
    "lng" : "-98.31638",
    "marca" : "pemex",
    "nombre" : "PETROMAX, S.A. DE C.V.",
    "url" : "myimg"
  },
  "-LKJwOFYyN5MUd7_srU4" : {
    "actualizacion" : 1534725888525,
    "calificacion" : 0,
    "cre_id" : "PL/630/EXP/ES/2015",
    "direccion" : "Carretera Nacional Visitación No. 45",
    "lat" : "19.71715",
    "lng" : "-99.13939",
    "marca" : "pemex",
    "nombre" : "Inmobiliaria Socor, S.A. de C.V.",
    "url" : "myimg"
  },
  "-LKJwOFZ2RgKxZxI27Hd" : {
    "actualizacion" : 1534725888525,
    "calificacion" : 0,
    "cre_id" : "PL/394/EXP/ES/2015",
    "direccion" : "Calzada Manuel Gómez Morín Y Calle de Los Portales",
    "lat" : "32.59509",
    "lng" : "-115.5029",
    "marca" : "pemex",
    "nombre" : "GRUPO EMPRESARIAL CACHANILLA SA DE CV",
    "url" : "myimg"
  },
  "-LKJwOFZ2RgKxZxI27He" : {
    "actualizacion" : 1534725888525,
    "calificacion" : 0,
    "cre_id" : "PL/632/EXP/ES/2015",
    "direccion" : "Avenida Valle Escondido No. 21",
    "lat" : "19.53231",
    "lng" : "-99.2491",
    "marca" : "pemex",
    "nombre" : "Gasolinería Itálica, S.A. de C.V.",
    "url" : "myimg"
  },
  "-LKJwOFZ2RgKxZxI27Hf" : {
    "actualizacion" : 1534725888525,
    "calificacion" : 0,
    "cre_id" : "PL/853/EXP/ES/2015",
    "direccion" : "Autopista México - Acapulco Lado a Km 92.600",
    "lat" : "18.90457",
    "lng" : "-99.21558",
    "marca" : "pemex",
    "nombre" : "Super Servicio Cumbre, S.A. de C.V.",
    "url" : "myimg"
  },
  "-LKJwOF_rmMcwbxTPZHT" : {
    "actualizacion" : 1534725888525,
    "calificacion" : 0,
    "cre_id" : "PL/893/EXP/ES/2015",
    "direccion" : "Carretera Dolores Hidalgo - San Luis de La Paz Km 5",
    "lat" : "21.16531",
    "lng" : "-100.9016",
    "marca" : "pemex",
    "nombre" : "ESTACIONES DE SERVICIO CAMINOS DE GUANAJUATO SA CV",
    "url" : "myimg"
  },
  "-LKJwOF_rmMcwbxTPZHU" : {
    "actualizacion" : 1534725888525,
    "calificacion" : 0,
    "cre_id" : "PL/519/EXP/ES/2015",
    "direccion" : "Boulevard Vito Alessio No. 4071",
    "lat" : "25.47064",
    "lng" : "-100.995",
    "marca" : "pemex",
    "nombre" : "PETROMAX, S.A. DE C.V.",
    "url" : "myimg"
  },
  "-LKJwOF_rmMcwbxTPZHV" : {
    "actualizacion" : 1534725888525,
    "calificacion" : 0,
    "cre_id" : "PL/523/EXP/ES/2015",
    "direccion" : "Avenida Luis Donaldo Colosio No. 100",
    "lat" : "25.77217",
    "lng" : "-100.3883",
    "marca" : "pemex",
    "nombre" : "PETROMAX, S.A. DE C.V.",
    "url" : "myimg"
  },
  "-LKJwOFaOt9xNi6-VWNV" : {
    "actualizacion" : 1534725888525,
    "calificacion" : 0,
    "cre_id" : "PL/563/EXP/ES/2015",
    "direccion" : "Avenida Juan Montemayor No. 300",
    "lat" : "25.71573",
    "lng" : "-100.2403",
    "marca" : "pemex",
    "nombre" : "PETROMAX, S.A. DE C.V.",
    "url" : "myimg"
  },
  "-LKJwOFaOt9xNi6-VWNW" : {
    "actualizacion" : 1534725888525,
    "calificacion" : 0,
    "cre_id" : "PL/464/EXP/ES/2015",
    "direccion" : "Carretera Nacional S/N Esquina Camino a Las Boquilla",
    "lat" : "25.28464",
    "lng" : "-100.0302",
    "marca" : "pemex",
    "nombre" : "PETROMAX, S.A. DE C.V.",
    "url" : "myimg"
  },
  "-LKJwOFaOt9xNi6-VWNX" : {
    "actualizacion" : 1534725888525,
    "calificacion" : 0,
    "cre_id" : "PL/834/EXP/ES/2015",
    "direccion" : "Boulevard Luis Donaldo Colosio No. 3203",
    "lat" : "31.28525",
    "lng" : "-110.9418",
    "marca" : "pemex",
    "nombre" : "PETROLIFEROS LA TERRITORIAL, S. DE R.L. DE C.V.",
    "url" : "myimg"
  },
  "-LKJwOFaOt9xNi6-VWNY" : {
    "actualizacion" : 1534725888525,
    "calificacion" : 0,
    "cre_id" : "PL/467/EXP/ES/2015",
    "direccion" : "Carretera Monterrey-Reynosa Km 202.5 Esquina Con Privada de Las Bugambilias",
    "lat" : "26.04565",
    "lng" : "-98.39253",
    "marca" : "pemex",
    "nombre" : "PETROMAX, S.A. DE C.V.",
    "url" : "myimg"
  },
  "-LKJwOFbI-U_bQrfS2We" : {
    "actualizacion" : 1534725888525,
    "calificacion" : 0,
    "cre_id" : "PL/485/EXP/ES/2015",
    "direccion" : "Boulevard Isidoro López Zertuche No. 5950",
    "lat" : "25.48239",
    "lng" : "-100.9813",
    "marca" : "pemex",
    "nombre" : "PETROMAX, S.A. DE C.V.",
    "url" : "myimg"
  },
  "-LKJwOFbI-U_bQrfS2Wf" : {
    "actualizacion" : 1534725888525,
    "calificacion" : 0,
    "cre_id" : "PL/494/EXP/ES/2015",
    "direccion" : "Avenida Nogalar No. 305 Sur Interior 1",
    "lat" : "25.71853",
    "lng" : "-100.2887",
    "marca" : "pemex",
    "nombre" : "PETROMAX, S.A. DE C.V.",
    "url" : "myimg"
  },
  "-LKJwOFbI-U_bQrfS2Wg" : {
    "actualizacion" : 1534725888525,
    "calificacion" : 0,
    "cre_id" : "PL/695/EXP/ES/2015",
    "direccion" : "Del Circuito de Frutas Y Verduras Mz. 11 Lt. 11",
    "lat" : "19.37504",
    "lng" : "-99.08196",
    "marca" : "pemex",
    "nombre" : "Inmobiliaria RAVS, S.A. de C.V.",
    "url" : "myimg"
  },
  "-LKJwOFcyxnZkOrAEO6R" : {
    "actualizacion" : 1534725888525,
    "calificacion" : 0,
    "cre_id" : "PL/725/EXP/ES/2015",
    "direccion" : "Carretera Tecpatan Raudales Malpaso Km 4.23 S/N",
    "lat" : "17.18763",
    "lng" : "-93.56612",
    "marca" : "pemex",
    "nombre" : "GASOLINA Y LUBRICANTES MALPASO SA DE CV ",
    "url" : "myimg"
  },
  "-LKJwOFcyxnZkOrAEO6S" : {
    "actualizacion" : 1534725888525,
    "calificacion" : 0,
    "cre_id" : "PL/678/EXP/ES/2015",
    "direccion" : "Avenida Defensores de Baja California No. 10820 Y Esquina Con Calle Santiago de La Cruz",
    "lat" : "32.52866",
    "lng" : "-117.0082",
    "marca" : "pemex",
    "nombre" : "SERVICIO EFIGAS, S. DE R.L. DE C.V.",
    "url" : "myimg"
  },
  "-LKJwOFcyxnZkOrAEO6T" : {
    "actualizacion" : 1534725888525,
    "calificacion" : 0,
    "cre_id" : "PL/727/EXP/ES/2015",
    "direccion" : "Avenida Elías Zamora Verduzco No. 2128",
    "lat" : "19.11446",
    "lng" : "-104.3236",
    "marca" : "pemex",
    "nombre" : "SERVICIOS ENERGETICOS DEL PACIFICO SA DE CV",
    "url" : "myimg"
  },
  "-LKJwOFdzU1acMxw9khg" : {
    "actualizacion" : 1534725888525,
    "calificacion" : 0,
    "cre_id" : "PL/821/EXP/ES/2015",
    "direccion" : "Avenida Hidalgo No. 83",
    "lat" : "19.2289",
    "lng" : "-99.19692",
    "marca" : "pemex",
    "nombre" : "Gasolinería México - Ajusco 1, S.A. de C.V.",
    "url" : "myimg"
  },
  "-LKJwOFdzU1acMxw9khh" : {
    "actualizacion" : 1534725888525,
    "calificacion" : 0,
    "cre_id" : "PL/421/EXP/ES/2015",
    "direccion" : "Avenida Priciliano Sánchez No. 755",
    "lat" : "20.65418",
    "lng" : "-105.2224",
    "marca" : "pemex",
    "nombre" : "GRUPO OCTANO, S.A. DE C.V.",
    "url" : "myimg"
  },
  "-LKJwOFdzU1acMxw9khi" : {
    "actualizacion" : 1534725888525,
    "calificacion" : 0,
    "cre_id" : "PL/501/EXP/ES/2015",
    "direccion" : "Carretera Morelia Salamanca Km 62 S/N",
    "lat" : "20.20225",
    "lng" : "-101.1592",
    "marca" : "pemex",
    "nombre" : "GRUPO OCTANO, S.A. DE C.V.",
    "url" : "myimg"
  },
  "-LKJwOFeA9dFnz_3pEQ4" : {
    "actualizacion" : 1534725888525,
    "calificacion" : 0,
    "cre_id" : "PL/383/EXP/ES/2015",
    "direccion" : "Avenida Venustiano Carranza Y Calle 4ta No. 400",
    "lat" : "32.47077",
    "lng" : "-114.7834",
    "marca" : "pemex",
    "nombre" : "GRUPO EMPRESARIAL CACHANILLA SA DE CV",
    "url" : "myimg"
  },
  "-LKJwOFeA9dFnz_3pEQ5" : {
    "actualizacion" : 1534725888525,
    "calificacion" : 0,
    "cre_id" : "PL/559/EXP/ES/2015",
    "direccion" : "Periférico Luis Echeverría No. 2502",
    "lat" : "25.38848",
    "lng" : "-100.9898",
    "marca" : "pemex",
    "nombre" : "PETROMAX, S.A. DE C.V.",
    "url" : "myimg"
  },
  "-LKJwOFeA9dFnz_3pEQ6" : {
    "actualizacion" : 1534725888525,
    "calificacion" : 0,
    "cre_id" : "PL/510/EXP/ES/2015",
    "direccion" : "Avenida Tamazula No. 375 Esquina Piedras Negras",
    "lat" : "25.55805",
    "lng" : "-103.4574",
    "marca" : "pemex",
    "nombre" : "PETROMAX, S.A. DE C.V.",
    "url" : "myimg"
  },
  "-LKJwOFfdW4_cQrdpSRB" : {
    "actualizacion" : 1534725888525,
    "calificacion" : 0,
    "cre_id" : "PL/719/EXP/ES/2015",
    "direccion" : "Insurgentes No. 45",
    "lat" : "20.19257",
    "lng" : "-99.26816",
    "marca" : "pemex",
    "nombre" : "ESTACION DE SERVICIO TEZONTEPEC S.A. DE C.V.",
    "url" : "myimg"
  },
  "-LKJwOFfdW4_cQrdpSRC" : {
    "actualizacion" : 1534725888525,
    "calificacion" : 0,
    "cre_id" : "PL/729/EXP/ES/2015",
    "direccion" : "Boulevard Vía Rápida Oriente No. 16870",
    "lat" : "32.48362",
    "lng" : "-116.9314",
    "marca" : "pemex",
    "nombre" : "ESTACION RAEL, S. DE R.L. DE C.V.",
    "url" : "myimg"
  },
  "-LKJwOFfdW4_cQrdpSRD" : {
    "actualizacion" : 1534725888525,
    "calificacion" : 0,
    "cre_id" : "PL/664/EXP/ES/2015",
    "direccion" : "Calle 10 de Abril No. 711",
    "lat" : "18.91205",
    "lng" : "-99.20078",
    "marca" : "pemex",
    "nombre" : "Estación de Servicio Cordoba, S.A. de C.V.",
    "url" : "myimg"
  },
  "-LKJwOFfdW4_cQrdpSRE" : {
    "actualizacion" : 1534725888525,
    "calificacion" : 0,
    "cre_id" : "PL/702/EXP/ES/2015",
    "direccion" : "Cuauhtémoc Sur Poniente No. 2834",
    "lat" : "32.51695",
    "lng" : "-117.0217",
    "marca" : "pemex",
    "nombre" : "Becktrop Operadora SA de CV",
    "url" : "myimg"
  },
  "-LKJwOFgFFgakORLjpv3" : {
    "actualizacion" : 1534725888525,
    "calificacion" : 0,
    "cre_id" : "PL/378/EXP/ES/2015",
    "direccion" : "Calzada Gustavo Vildosola Castro No. 1901",
    "lat" : "32.60439",
    "lng" : "-115.4283",
    "marca" : "pemex",
    "nombre" : "GRUPO EMPRESARIAL CACHANILLA SA DE CV",
    "url" : "myimg"
  },
  "-LKJwOFgFFgakORLjpv4" : {
    "actualizacion" : 1534725888525,
    "calificacion" : 0,
    "cre_id" : "PL/847/EXP/ES/2015",
    "direccion" : "Bernardo Norzagaray No. 8211",
    "lat" : "31.77218",
    "lng" : "-106.5244",
    "marca" : "pemex",
    "nombre" : "GRUPO GOCALVI SA DE CV",
    "url" : "myimg"
  },
  "-LKJwOFhAHiGLQE5iXxg" : {
    "actualizacion" : 1534725888525,
    "calificacion" : 0,
    "cre_id" : "PL/419/EXP/ES/2015",
    "direccion" : "Mariano Otero No. 3582",
    "lat" : "20.64037",
    "lng" : "-103.4172",
    "marca" : "pemex",
    "nombre" : "GRUPO OCTANO, S.A. DE C.V.",
    "url" : "myimg"
  },
  "-LKJwOFhAHiGLQE5iXxh" : {
    "actualizacion" : 1534725888525,
    "calificacion" : 0,
    "cre_id" : "PL/414/EXP/ES/2015",
    "direccion" : "Calle Sin Nombre Esquina Con Carretera Federal Morelia-Zinapécuaro No. 2",
    "lat" : "19.78714",
    "lng" : "-101.0983",
    "marca" : "pemex",
    "nombre" : "GRUPO OCTANO, S.A. DE C.V.",
    "url" : "myimg"
  },
  "-LKJwOFiMGm86FuhWLme" : {
    "actualizacion" : 1534725888525,
    "calificacion" : 0,
    "cre_id" : "PL/870/EXP/ES/2015",
    "direccion" : "Ignacio Alatorre No. 2765",
    "lat" : "31.72176",
    "lng" : "-106.4938",
    "marca" : "pemex",
    "nombre" : "GRUPO GOCALVI SA DE CV",
    "url" : "myimg"
  },
  "-LKJwOFiMGm86FuhWLmf" : {
    "actualizacion" : 1534725888525,
    "calificacion" : 0,
    "cre_id" : "PL/805/EXP/ES/2015",
    "direccion" : "Avenida Luis Donaldo Colosio No. 367",
    "lat" : "18.64528",
    "lng" : "-91.8837",
    "marca" : "pemex",
    "nombre" : "SERVICIO GENCAR, S.A. DE C.V.",
    "url" : "myimg"
  },
  "-LKJwOFiMGm86FuhWLmg" : {
    "actualizacion" : 1534725888525,
    "calificacion" : 0,
    "cre_id" : "PL/393/EXP/ES/2015",
    "direccion" : "Avenida Ignacio Zaragoza Y Avenida Cascada",
    "lat" : "32.55959",
    "lng" : "-115.3589",
    "marca" : "pemex",
    "nombre" : "GRUPO EMPRESARIAL CACHANILLA SA DE CV",
    "url" : "myimg"
  },
  "-LKJwOFjGe-MdfWAOP7Q" : {
    "actualizacion" : 1534725888525,
    "calificacion" : 0,
    "cre_id" : "PL/384/EXP/ES/2015",
    "direccion" : "Calzada Heroica Puebla No. 18",
    "lat" : "32.56762",
    "lng" : "-115.3366",
    "marca" : "pemex",
    "nombre" : "GRUPO EMPRESARIAL CACHANILLA SA DE CV",
    "url" : "myimg"
  },
  "-LKJwOFjGe-MdfWAOP7R" : {
    "actualizacion" : 1534725888525,
    "calificacion" : 0,
    "cre_id" : "PL/622/EXP/ES/2015",
    "direccion" : "Periférico Torreón - Gómez - Lerdo Km 4.5",
    "lat" : "25.59786",
    "lng" : "-103.4968",
    "marca" : "pemex",
    "nombre" : "PETROMAX, S.A. DE C.V.",
    "url" : "myimg"
  },
  "-LKJwOFkqwMHWrA0aT2U" : {
    "actualizacion" : 1534725888525,
    "calificacion" : 0,
    "cre_id" : "PL/435/EXP/ES/2015",
    "direccion" : "Vía Dr. Gustavo Baz No. 46",
    "lat" : "19.47735",
    "lng" : "-99.23218",
    "marca" : "pemex",
    "nombre" : "PETROMAX, S.A. DE C.V.",
    "url" : "myimg"
  },
  "-LKJwOFkqwMHWrA0aT2V" : {
    "actualizacion" : 1534725888525,
    "calificacion" : 0,
    "cre_id" : "PL/466/EXP/ES/2015",
    "direccion" : "Avenida Teléfono No. 1000 Esquina Con Erídano",
    "lat" : "25.73397",
    "lng" : "-100.174",
    "marca" : "pemex",
    "nombre" : "PETROMAX, S.A. DE C.V.",
    "url" : "myimg"
  },
  "-LKJwOFkqwMHWrA0aT2W" : {
    "actualizacion" : 1534725888525,
    "calificacion" : 0,
    "cre_id" : "PL/570/EXP/ES/2015",
    "direccion" : "Avenida Republica Mexicana No. 600",
    "lat" : "25.76927",
    "lng" : "-100.273",
    "marca" : "pemex",
    "nombre" : "PETROMAX, S.A. DE C.V.",
    "url" : "myimg"
  },
  "-LKJwOFlLBl8jpx_jTPb" : {
    "actualizacion" : 1534725888525,
    "calificacion" : 0,
    "cre_id" : "PL/755/EXP/ES/2015",
    "direccion" : "Avenida San Fernando No. 175",
    "lat" : "19.24986",
    "lng" : "-103.719",
    "marca" : "pemex",
    "nombre" : "GAS SANFER S. DE R.L. DE C.V.",
    "url" : "myimg"
  },
  "-LKJwOFlLBl8jpx_jTPc" : {
    "actualizacion" : 1534725888525,
    "calificacion" : 0,
    "cre_id" : "PL/769/EXP/ES/2015",
    "direccion" : "Boulevard Luis Donaldo Colosio No. 814",
    "lat" : "21.49188",
    "lng" : "-104.8626",
    "marca" : "pemex",
    "nombre" : "COMBU-EXPRESS, S.A. DE C.V.",
    "url" : "myimg"
  },
  "-LKJwOFlLBl8jpx_jTPd" : {
    "actualizacion" : 1534725888525,
    "calificacion" : 0,
    "cre_id" : "PL/450/EXP/ES/2015",
    "direccion" : "Carretera Miguel Alemán No. 1001",
    "lat" : "25.78579",
    "lng" : "-100.1586",
    "marca" : "pemex",
    "nombre" : "PETROMAX, S.A. DE C.V.",
    "url" : "myimg"
  },
  "-LKJwOFm386873ZJlJ-K" : {
    "actualizacion" : 1534725888525,
    "calificacion" : 0,
    "cre_id" : "PL/854/EXP/ES/2015",
    "direccion" : "Carretera Texcoco - Lechería S/N",
    "lat" : "19.61462",
    "lng" : "-99.0181",
    "marca" : "pemex",
    "nombre" : "Servicio Jacarandas, S.A. de C.V.",
    "url" : "myimg"
  },
  "-LKJwOFm386873ZJlJ-L" : {
    "actualizacion" : 1534725888525,
    "calificacion" : 0,
    "cre_id" : "PL/429/EXP/ES/2015",
    "direccion" : "Boulevard Hidalgo No. 1313 Esquina Calle José Escandón",
    "lat" : "26.08213",
    "lng" : "-98.29991",
    "marca" : "pemex",
    "nombre" : "PETROMAX, S.A. DE C.V.",
    "url" : "myimg"
  },
  "-LKJwOFm386873ZJlJ-M" : {
    "actualizacion" : 1534725888525,
    "calificacion" : 0,
    "cre_id" : "PL/534/EXP/ES/2015",
    "direccion" : "Avenida México No. 139",
    "lat" : "20.69032",
    "lng" : "-105.2258",
    "marca" : "pemex",
    "nombre" : "GRUPO OCTANO, S.A. DE C.V.",
    "url" : "myimg"
  },
  "-LKJwOFnucXEE-E0ryvX" : {
    "actualizacion" : 1534725888525,
    "calificacion" : 0,
    "cre_id" : "PL/379/EXP/ES/2015",
    "direccion" : "Carretera Los Mochis-Topolobampo No. 4395 Sur",
    "lat" : "25.74504",
    "lng" : "-109.0079",
    "marca" : "pemex",
    "nombre" : "MULTISERVICIOS LA PILARICA SA DE CV ",
    "url" : "myimg"
  },
  "-LKJwOFnucXEE-E0ryvY" : {
    "actualizacion" : 1534725888525,
    "calificacion" : 0,
    "cre_id" : "PL/692/EXP/ES/2015",
    "direccion" : "Camino a San Andrés Lt. 2 No. 21",
    "lat" : "19.54896",
    "lng" : "-99.07384",
    "marca" : "pemex",
    "nombre" : "Estación de Servicio Marbella, S.A. de C.V.",
    "url" : "myimg"
  },
  "-LKJwOFo9hOJVGv2-GKm" : {
    "actualizacion" : 1534725888525,
    "calificacion" : 0,
    "cre_id" : "PL/614/EXP/ES/2015",
    "direccion" : "Boulevard Hidalgo No. 99 Esquina Calle Bella Vista",
    "lat" : "26.06836",
    "lng" : "-98.33501",
    "marca" : "pemex",
    "nombre" : "PETROMAX, S.A. DE C.V.",
    "url" : "myimg"
  },
  "-LKJwOFo9hOJVGv2-GKn" : {
    "actualizacion" : 1534725888525,
    "calificacion" : 0,
    "cre_id" : "PL/648/EXP/ES/2015",
    "direccion" : "Cisnes No. 40 Mz. 10 Lt. 13 Y 14",
    "lat" : "19.62737",
    "lng" : "-99.2403",
    "marca" : "pemex",
    "nombre" : "Gasolinería Ulises, S.A. de C.V.",
    "url" : "myimg"
  },
  "-LKJwOFo9hOJVGv2-GKo" : {
    "actualizacion" : 1534725888525,
    "calificacion" : 0,
    "cre_id" : "PL/852/EXP/ES/2015",
    "direccion" : "Boulevard Centenario No. 450",
    "lat" : "25.59699",
    "lng" : "-103.3994",
    "marca" : "pemex",
    "nombre" : "ARY SUPER SERVICIOS VI, SA DE CV",
    "url" : "myimg"
  },
  "-LKJwOFpSIQO4E3D3JFW" : {
    "actualizacion" : 1534725888525,
    "calificacion" : 0,
    "cre_id" : "PL/574/EXP/ES/2015",
    "direccion" : "Avenida Vía Morelos No. 322-A.",
    "lat" : "19.54947",
    "lng" : "-99.05198",
    "marca" : "pemex",
    "nombre" : "PETROMAX, S.A. DE C.V.",
    "url" : "myimg"
  },
  "-LKJwOFpSIQO4E3D3JFX" : {
    "actualizacion" : 1534725888525,
    "calificacion" : 0,
    "cre_id" : "PL/693/EXP/ES/2015",
    "direccion" : "Boulevard Adolfo López Mateos No. 206",
    "lat" : "22.254",
    "lng" : "-97.85314",
    "marca" : "pemex",
    "nombre" : "Estación de Servicio Cuenca, S.A. de C.V. ",
    "url" : "myimg"
  },
  "-LKJwOFpSIQO4E3D3JFY" : {
    "actualizacion" : 1534725888525,
    "calificacion" : 0,
    "cre_id" : "PL/859/EXP/ES/2015",
    "direccion" : "Boulevard Antonio Madrazo No. 3701",
    "lat" : "21.15335",
    "lng" : "-101.6542",
    "marca" : "pemex",
    "nombre" : "ESTACION DE SERVICIO LEON, S.DER.L. DE C.V.",
    "url" : "myimg"
  },
  "-LKJwOFqZ_hgJED8TQVQ" : {
    "actualizacion" : 1534725888525,
    "calificacion" : 0,
    "cre_id" : "PL/757/EXP/ES/2015",
    "direccion" : "Avenida San Gabriel No. 707",
    "lat" : "21.87411",
    "lng" : "-102.2435",
    "marca" : "pemex",
    "nombre" : "DALROM S.A DE C.V.",
    "url" : "myimg"
  },
  "-LKJwOFqZ_hgJED8TQVR" : {
    "actualizacion" : 1534725888525,
    "calificacion" : 0,
    "cre_id" : "PL/555/EXP/ES/2015",
    "direccion" : "Avenida Andrómeda S/N",
    "lat" : "25.79039",
    "lng" : "-100.261",
    "marca" : "pemex",
    "nombre" : "PETROMAX, S.A. DE C.V.",
    "url" : "myimg"
  },
  "-LKJwOFqZ_hgJED8TQVS" : {
    "actualizacion" : 1534725888525,
    "calificacion" : 0,
    "cre_id" : "PL/735/EXP/ES/2015",
    "direccion" : "Calzada de La Quinta No. 227",
    "lat" : "16.73734",
    "lng" : "-92.60492",
    "marca" : "pemex",
    "nombre" : "COMBUSTIBLES ARCOTETE S.A. DE C.V.",
    "url" : "myimg"
  },
  "-LKJwOFr4GuJw4Aw_cp5" : {
    "actualizacion" : 1534725888525,
    "calificacion" : 0,
    "cre_id" : "PL/647/EXP/ES/2015",
    "direccion" : "Camino a España No. 351-A",
    "lat" : "19.82526",
    "lng" : "-99.08937",
    "marca" : "pemex",
    "nombre" : "Estación de Servicio la Rioja, S.A. de C.V.",
    "url" : "myimg"
  },
  "-LKJwOFr4GuJw4Aw_cp6" : {
    "actualizacion" : 1534725888525,
    "calificacion" : 0,
    "cre_id" : "PL/771/EXP/ES/2015",
    "direccion" : "Boulevard Jesús Valdés Sánchez No. 2911",
    "lat" : "25.44261",
    "lng" : "-100.9147",
    "marca" : "pemex",
    "nombre" : "servicio el toreo de saltillo sa de cv",
    "url" : "myimg"
  },
  "-LKJwOFr4GuJw4Aw_cp7" : {
    "actualizacion" : 1534725888525,
    "calificacion" : 0,
    "cre_id" : "PL/514/EXP/ES/2015",
    "direccion" : "Avenida Manuel Ordoñez No. 2300",
    "lat" : "25.67927",
    "lng" : "-100.4822",
    "marca" : "pemex",
    "nombre" : "PETROMAX, S.A. DE C.V.",
    "url" : "myimg"
  },
  "-LKJwOFscWgAMBWupeCW" : {
    "actualizacion" : 1534725888525,
    "calificacion" : 0,
    "cre_id" : "PL/783/EXP/ES/2015",
    "direccion" : "Boulevard Fundadores Km 8",
    "lat" : "25.44026",
    "lng" : "-100.8774",
    "marca" : "pemex",
    "nombre" : "SERVICIO SIERRA DE ARTEAGA SA DE CV",
    "url" : "myimg"
  },
  "-LKJwOFscWgAMBWupeCX" : {
    "actualizacion" : 1534725888525,
    "calificacion" : 0,
    "cre_id" : "PL/761/EXP/ES/2015",
    "direccion" : "Avenida Rafael Pérez Serna No. 676",
    "lat" : "31.7462",
    "lng" : "-106.4253",
    "marca" : "pemex",
    "nombre" : "Diaz Gas, S.A. de C.V.",
    "url" : "myimg"
  },
  "-LKJwOFscWgAMBWupeCY" : {
    "actualizacion" : 1534725888525,
    "calificacion" : 0,
    "cre_id" : "PL/458/EXP/ES/2015",
    "direccion" : "Orquídea No. 538",
    "lat" : "25.70878",
    "lng" : "-100.1629",
    "marca" : "pemex",
    "nombre" : "PETROMAX, S.A. DE C.V.",
    "url" : "myimg"
  },
  "-LKJwOFscWgAMBWupeCZ" : {
    "actualizacion" : 1534725888525,
    "calificacion" : 0,
    "cre_id" : "PL/888/EXP/ES/2015",
    "direccion" : "Mza 6 Lt. 6 Reg. 210 Benito Juárez",
    "lat" : "21.15601",
    "lng" : "-86.88126",
    "marca" : "pemex",
    "nombre" : "ESTACION TALLERES S.A. DE C.V.",
    "url" : "myimg"
  },
  "-LKJwOFtPiBcrsu5Ybhk" : {
    "actualizacion" : 1534725888525,
    "calificacion" : 0,
    "cre_id" : "PL/564/EXP/ES/2015",
    "direccion" : "Avenida Raúl Rangel Frías No. 699",
    "lat" : "25.71314",
    "lng" : "-100.3628",
    "marca" : "pemex",
    "nombre" : "PETROMAX, S.A. DE C.V.",
    "url" : "myimg"
  },
  "-LKJwOFtPiBcrsu5Ybhl" : {
    "actualizacion" : 1534725888525,
    "calificacion" : 0,
    "cre_id" : "PL/520/EXP/ES/2015",
    "direccion" : "Avenida Chapultepec No. 816",
    "lat" : "25.66576",
    "lng" : "-100.2664",
    "marca" : "pemex",
    "nombre" : "PETROMAX, S.A. DE C.V.",
    "url" : "myimg"
  },
  "-LKJwOFtPiBcrsu5Ybhm" : {
    "actualizacion" : 1534725888525,
    "calificacion" : 0,
    "cre_id" : "PL/874/EXP/ES/2015",
    "direccion" : "Carretera Tuxtla Gutiérrez Cd. Cuauhtémoc Km 232+580 Frontera Comalapa",
    "lat" : "15.8336",
    "lng" : "-91.96599",
    "marca" : "pemex",
    "nombre" : "GRUPO LONOR, S.A. DE C.V.  E11919",
    "url" : "myimg"
  },
  "-LKJwOFud3jHnldEludF" : {
    "actualizacion" : 1534725888525,
    "calificacion" : 0,
    "cre_id" : "PL/877/EXP/ES/2015",
    "direccion" : "Boulevard Timoteo Lozano Oriente No. 3001",
    "lat" : "21.07652",
    "lng" : "-101.6518",
    "marca" : "pemex",
    "nombre" : "ESTACION DE SERVICIO LEON, S.DER.L. DE C.V.",
    "url" : "myimg"
  },
  "-LKJwOFud3jHnldEludG" : {
    "actualizacion" : 1534725888525,
    "calificacion" : 0,
    "cre_id" : "PL/504/EXP/ES/2015",
    "direccion" : "Avenida Obregón No. 452",
    "lat" : "19.80471",
    "lng" : "-104.2044",
    "marca" : "pemex",
    "nombre" : "GRUPO OCTANO, S.A. DE C.V.",
    "url" : "myimg"
  },
  "-LKJwOFwWw97km9kYYMy" : {
    "actualizacion" : 1534725888525,
    "calificacion" : 0,
    "cre_id" : "PL/416/EXP/ES/2015",
    "direccion" : "Avenida Insurgentes No. 1131 Oriente",
    "lat" : "21.49595",
    "lng" : "-104.883",
    "marca" : "pemex",
    "nombre" : "GRUPO OCTANO, S.A. DE C.V.",
    "url" : "myimg"
  },
  "-LKJwOFwWw97km9kYYMz" : {
    "actualizacion" : 1534725888525,
    "calificacion" : 0,
    "cre_id" : "PL/733/EXP/ES/2015",
    "direccion" : "Carretera a Los Planes No. 3650",
    "lat" : "24.12212",
    "lng" : "-110.2945",
    "marca" : "pemex",
    "nombre" : "GASOLINERAS PABA SA DE CV ",
    "url" : "myimg"
  },
  "-LKJwOFxUoQofdtGl6eC" : {
    "actualizacion" : 1534725888525,
    "calificacion" : 0,
    "cre_id" : "PL/883/EXP/ES/2015",
    "direccion" : "Calzada de Jesuita Agustín de Espinoza No. 1011",
    "lat" : "25.55813",
    "lng" : "-103.3947",
    "marca" : "pemex",
    "nombre" : "SERVICIO GASOL SA DE CV",
    "url" : "myimg"
  },
  "-LKJwOFxUoQofdtGl6eD" : {
    "actualizacion" : 1534725888525,
    "calificacion" : 0,
    "cre_id" : "PL/542/EXP/ES/2015",
    "direccion" : "Carretera Monterrey - Reynosa Esquina Con Avenida Cerro del Mercado",
    "lat" : "26.02191",
    "lng" : "-98.23244",
    "marca" : "pemex",
    "nombre" : "PETROMAX, S.A. DE C.V.",
    "url" : "myimg"
  },
  "-LKJwOFyfmyFsQZON69a" : {
    "actualizacion" : 1534725888525,
    "calificacion" : 0,
    "cre_id" : "PL/709/EXP/ES/2015",
    "direccion" : "Boulevard Agua Caliente No. 9150",
    "lat" : "32.5229",
    "lng" : "-117.0261",
    "marca" : "pemex",
    "nombre" : "Becktrop Operadora SA de CV",
    "url" : "myimg"
  },
  "-LKJwOFyfmyFsQZON69b" : {
    "actualizacion" : 1534725888525,
    "calificacion" : 0,
    "cre_id" : "PL/722/EXP/ES/2015",
    "direccion" : "Boulevard Manuel J. Clouthier No. 18378",
    "lat" : "32.49483",
    "lng" : "-116.924",
    "marca" : "pemex",
    "nombre" : "ESTACION AMBAR, S. DE R.L. DE C.V.",
    "url" : "myimg"
  },
  "-LKJwOFzGmFMIRnATwlb" : {
    "actualizacion" : 1534725888525,
    "calificacion" : 0,
    "cre_id" : "PL/819/EXP/ES/2015",
    "direccion" : "Carretera México - Tepexpan S/N",
    "lat" : "19.6214",
    "lng" : "-99.00452",
    "marca" : "pemex",
    "nombre" : "Estación de Servicio Venta de Carpio, S.A. de C.V.",
    "url" : "myimg"
  },
  "-LKJwOFzGmFMIRnATwlc" : {
    "actualizacion" : 1534725888525,
    "calificacion" : 0,
    "cre_id" : "PL/370/EXP/ES/2015",
    "direccion" : "Boulevard Centenario No. 1690 Poniente",
    "lat" : "25.78968",
    "lng" : "-109.0119",
    "marca" : "pemex",
    "nombre" : "SERVICIOS DEL VALLE DEL FUERTE, S.A. DE C.V.",
    "url" : "myimg"
  },
  "-LKJwOG-DUmfSccjXRKf" : {
    "actualizacion" : 1534725888525,
    "calificacion" : 0,
    "cre_id" : "PL/688/EXP/ES/2015",
    "direccion" : "5 de Febrero No. 1215",
    "lat" : "24.14254",
    "lng" : "-110.314",
    "marca" : "pemex",
    "nombre" : "GASOLINERAS PABA SA DE CV ",
    "url" : "myimg"
  },
  "-LKJwOG-DUmfSccjXRKg" : {
    "actualizacion" : 1534725888525,
    "calificacion" : 0,
    "cre_id" : "PL/540/EXP/ES/2015",
    "direccion" : "Avenida Luis Donaldo Colosio No. 1000-1",
    "lat" : "25.76277",
    "lng" : "-100.4024",
    "marca" : "pemex",
    "nombre" : "PETROMAX, S.A. DE C.V.",
    "url" : "myimg"
  },
  "-LKJwOG-DUmfSccjXRKh" : {
    "actualizacion" : 1534725888525,
    "calificacion" : 0,
    "cre_id" : "PL/765/EXP/ES/2015",
    "direccion" : "Carretera Huixtla Tapachula Km 281+656",
    "lat" : "14.91567",
    "lng" : "-92.34282",
    "marca" : "pemex",
    "nombre" : "ENERGETICOS Y SERVICIOS OCOZOCOAUTLA  SA DE CV ",
    "url" : "myimg"
  },
  "-LKJwOG0aJDTIOnbX6Vz" : {
    "actualizacion" : 1534725888525,
    "calificacion" : 0,
    "cre_id" : "PL/600/EXP/ES/2015",
    "direccion" : "Avenida López Mateos S/N",
    "lat" : "25.73068",
    "lng" : "-100.253",
    "marca" : "pemex",
    "nombre" : "PETROMAX, S.A. DE C.V.",
    "url" : "myimg"
  },
  "-LKJwOG0aJDTIOnbX6W-" : {
    "actualizacion" : 1534725888525,
    "calificacion" : 0,
    "cre_id" : "PL/633/EXP/ES/2015",
    "direccion" : "Libramiento Sur No. 3000-A",
    "lat" : "32.52634",
    "lng" : "-117.0852",
    "marca" : "pemex",
    "nombre" : "APOYOS Y SUMIN.COMERCIALES E INDUST. S.A. DE C.V. ",
    "url" : "myimg"
  },
  "-LKJwOG1Bk8774YGnlGI" : {
    "actualizacion" : 1534725888525,
    "calificacion" : 0,
    "cre_id" : "PL/398/EXP/ES/2015",
    "direccion" : "Calzada Abelardo L. Rodríguez",
    "lat" : "32.65948",
    "lng" : "-115.3744",
    "marca" : "pemex",
    "nombre" : "GRUPO EMPRESARIAL CACHANILLA SA DE CV",
    "url" : "myimg"
  },
  "-LKJwOG1Bk8774YGnlGJ" : {
    "actualizacion" : 1534725888525,
    "calificacion" : 0,
    "cre_id" : "PL/389/EXP/ES/2015",
    "direccion" : "Carretera Mexicali-San Felipe No. 399",
    "lat" : "32.59562",
    "lng" : "-115.4325",
    "marca" : "pemex",
    "nombre" : "GRUPO EMPRESARIAL CACHANILLA SA DE CV",
    "url" : "myimg"
  },
  "-LKJwOG2APxsaDV987vq" : {
    "actualizacion" : 1534725888525,
    "calificacion" : 0,
    "cre_id" : "PL/687/EXP/ES/2015",
    "direccion" : "Boulevard Matamoros No. 21791",
    "lat" : "32.51322",
    "lng" : "-116.8796",
    "marca" : "pemex",
    "nombre" : "ESTACION CUCAPAH, S.A. DE C.V.",
    "url" : "myimg"
  },
  "-LKJwOG2APxsaDV987vr" : {
    "actualizacion" : 1534725888525,
    "calificacion" : 0,
    "cre_id" : "PL/603/EXP/ES/2015",
    "direccion" : "Carretera a Laredo No. 1600",
    "lat" : "25.82103",
    "lng" : "-100.264",
    "marca" : "pemex",
    "nombre" : "PETROMAX, S.A. DE C.V.",
    "url" : "myimg"
  },
  "-LKJwOG3CvEvbdfqPlQv" : {
    "actualizacion" : 1534725888525,
    "calificacion" : 0,
    "cre_id" : "PL/669/EXP/ES/2015",
    "direccion" : "Boulevard Industrial No. 19272",
    "lat" : "32.53901",
    "lng" : "-116.9147",
    "marca" : "pemex",
    "nombre" : "ESTACION GRUGAS, S. DE R.L. DE C.V.",
    "url" : "myimg"
  },
  "-LKJwOG3CvEvbdfqPlQw" : {
    "actualizacion" : 1534725888525,
    "calificacion" : 0,
    "cre_id" : "PL/739/EXP/ES/2015",
    "direccion" : "Lt. 1 Mz. 28 de La Zona 1 Ejido Nueva Orizaba",
    "lat" : "16.08285",
    "lng" : "-90.63845",
    "marca" : "pemex",
    "nombre" : "DISTRIBUIDORA DE COBUSTIBLES LAS CAÑADAS SA DE CV ",
    "url" : "myimg"
  },
  "-LKJwOG3CvEvbdfqPlQx" : {
    "actualizacion" : 1534725888525,
    "calificacion" : 0,
    "cre_id" : "PL/741/EXP/ES/2015",
    "direccion" : "Boulevard Isidro López Zertuche No. 5851",
    "lat" : "25.48155",
    "lng" : "-100.9835",
    "marca" : "pemex",
    "nombre" : "servicios energeticos brisas sa de cv",
    "url" : "myimg"
  },
  "-LKJwOG3CvEvbdfqPlQy" : {
    "actualizacion" : 1534725888525,
    "calificacion" : 0,
    "cre_id" : "PL/589/EXP/ES/2015",
    "direccion" : "Avenida Raúl Salinas No. 299",
    "lat" : "25.78637",
    "lng" : "-100.3206",
    "marca" : "pemex",
    "nombre" : "PETROMAX, S.A. DE C.V.",
    "url" : "myimg"
  },
  "-LKJwOG4VeuaiezqnYgp" : {
    "actualizacion" : 1534725888525,
    "calificacion" : 0,
    "cre_id" : "PL/643/EXP/ES/2015",
    "direccion" : "Km 8 Carretera Federal Reforma - La Isla",
    "lat" : "17.90663",
    "lng" : "-93.12914",
    "marca" : "pemex",
    "nombre" : "PETRO SERVICIOS DEL SURESTE SA DE CV",
    "url" : "myimg"
  },
  "-LKJwOG58v-wXuHQsb7q" : {
    "actualizacion" : 1534725888525,
    "calificacion" : 0,
    "cre_id" : "PL/716/EXP/ES/2015",
    "direccion" : "Boulevard Gustavo Díaz Ordaz No. 15260",
    "lat" : "32.65059",
    "lng" : "-115.4722",
    "marca" : "pemex",
    "nombre" : "Becktrop Operadora SA de CV",
    "url" : "myimg"
  },
  "-LKJwOG58v-wXuHQsb7r" : {
    "actualizacion" : 1534725888525,
    "calificacion" : 0,
    "cre_id" : "PL/777/EXP/ES/2015",
    "direccion" : "Libramiento Poniente S/N",
    "lat" : "16.76469",
    "lng" : "-93.38528",
    "marca" : "pemex",
    "nombre" : "GASOLINERIA LAZARO CHANONA BORGES SA DE CV ",
    "url" : "myimg"
  },
  "-LKJwOG6fXp3w3xQEnyT" : {
    "actualizacion" : 1534725888525,
    "calificacion" : 0,
    "cre_id" : "PL/547/EXP/ES/2015",
    "direccion" : "Avenida Raúl Salinas Lozano No. 193",
    "lat" : "25.77943",
    "lng" : "-100.318",
    "marca" : "pemex",
    "nombre" : "PETROMAX, S.A. DE C.V.",
    "url" : "myimg"
  },
  "-LKJwOG6fXp3w3xQEnyU" : {
    "actualizacion" : 1534725888525,
    "calificacion" : 0,
    "cre_id" : "PL/889/EXP/ES/2015",
    "direccion" : "Mz. 1 Lt. 5 02 Sm 200 Cancún Benito Juárez",
    "lat" : "21.14857",
    "lng" : "-86.89943",
    "marca" : "pemex",
    "nombre" : "GASOLINERA NORPONIENTE S.A. DE C.V.",
    "url" : "myimg"
  },
  "-LKJwOG6fXp3w3xQEnyV" : {
    "actualizacion" : 1534725888525,
    "calificacion" : 0,
    "cre_id" : "PL/736/EXP/ES/2015",
    "direccion" : "Avenida Oaxaca S/N",
    "lat" : "16.50013",
    "lng" : "-90.65433",
    "marca" : "pemex",
    "nombre" : "DISTRIBUIDORA DE COBUSTIBLES LAS CAÑADAS SA DE CV ",
    "url" : "myimg"
  },
  "-LKJwOG7stt5dotsb7Sd" : {
    "actualizacion" : 1534725888525,
    "calificacion" : 0,
    "cre_id" : "PL/598/EXP/ES/2015",
    "direccion" : "Vía José López Portillo S/N Esquina Eje Carlos Pichardo Cruz",
    "lat" : "19.6322",
    "lng" : "-99.0914",
    "marca" : "pemex",
    "nombre" : "PETROMAX, S.A. DE C.V.",
    "url" : "myimg"
  },
  "-LKJwOG7stt5dotsb7Se" : {
    "actualizacion" : 1534725888525,
    "calificacion" : 0,
    "cre_id" : "PL/822/EXP/ES/2015",
    "direccion" : "Avenida Par Vía Jiutepec No. 44",
    "lat" : "18.88947",
    "lng" : "-99.19987",
    "marca" : "pemex",
    "nombre" : "Estación de Servicio Cantabria, S.A. de C.V.",
    "url" : "myimg"
  },
  "-LKJwOG7stt5dotsb7Sf" : {
    "actualizacion" : 1534725888525,
    "calificacion" : 0,
    "cre_id" : "PL/424/EXP/ES/2015",
    "direccion" : "Avenida Sol Nuevo No. 1",
    "lat" : "21.0257",
    "lng" : "-105.2634",
    "marca" : "pemex",
    "nombre" : "GRUPO OCTANO, S.A. DE C.V.",
    "url" : "myimg"
  },
  "-LKJwOG8hVl7uYRjvfQ7" : {
    "actualizacion" : 1534725888525,
    "calificacion" : 0,
    "cre_id" : "PL/903/EXP/ES/2015",
    "direccion" : "Boulevard Alfonso G. Calderón 222",
    "lat" : "25.56817",
    "lng" : "-108.4668",
    "marca" : "pemex",
    "nombre" : "GASOLINERA GUASAVE SA DE CV",
    "url" : "myimg"
  },
  "-LKJwOG8hVl7uYRjvfQ8" : {
    "actualizacion" : 1534725888525,
    "calificacion" : 0,
    "cre_id" : "PL/495/EXP/ES/2015",
    "direccion" : "Ribereña No. 900",
    "lat" : "26.08957",
    "lng" : "-98.29279",
    "marca" : "pemex",
    "nombre" : "PETROMAX, S.A. DE C.V.",
    "url" : "myimg"
  },
  "-LKJwOG8hVl7uYRjvfQ9" : {
    "actualizacion" : 1534725888525,
    "calificacion" : 0,
    "cre_id" : "PL/403/EXP/ES/2015",
    "direccion" : "Carretera Colonia Progreso - Santa Isabel S/N",
    "lat" : "32.58874",
    "lng" : "-115.5797",
    "marca" : "pemex",
    "nombre" : "GRUPO EMPRESARIAL CACHANILLA SA DE CV",
    "url" : "myimg"
  },
  "-LKJwOG9MP2Szp1yWOeL" : {
    "actualizacion" : 1534725888525,
    "calificacion" : 0,
    "cre_id" : "PL/391/EXP/ES/2015",
    "direccion" : "Avenida Álvaro Obregón No. 1201 Poniente",
    "lat" : "25.79292",
    "lng" : "-109.0046",
    "marca" : "pemex",
    "nombre" : "SERVICIOS DEL VALLE DEL FUERTE, S.A. DE C.V.",
    "url" : "myimg"
  },
  "-LKJwOG9MP2Szp1yWOeM" : {
    "actualizacion" : 1534725888525,
    "calificacion" : 0,
    "cre_id" : "PL/671/EXP/ES/2015",
    "direccion" : "Calle 20 No. 24 X 3 Y 5",
    "lat" : "20.3788",
    "lng" : "-90.04852",
    "marca" : "pemex",
    "nombre" : "SERVICIO JARDINES, S.A. DE C.V. ( ES12369)",
    "url" : "myimg"
  },
  "-LKJwOGABTqWTEnRhBV8" : {
    "actualizacion" : 1534725888525,
    "calificacion" : 0,
    "cre_id" : "PL/828/EXP/ES/2015",
    "direccion" : "Avenida Colón No. 1870",
    "lat" : "20.65207",
    "lng" : "-103.3658",
    "marca" : "pemex",
    "nombre" : "Gasolinera Colon S.A. de C.V.",
    "url" : "myimg"
  },
  "-LKJwOGN9aDJDzZbp8g8" : {
    "actualizacion" : 1534725888525,
    "calificacion" : 0,
    "cre_id" : "PL/569/EXP/ES/2015",
    "direccion" : "Avenida Paseo de Los Leones No. 300",
    "lat" : "25.69688",
    "lng" : "-100.3575",
    "marca" : "pemex",
    "nombre" : "PETROMAX, S.A. DE C.V.",
    "url" : "myimg"
  },
  "-LKJwOGN9aDJDzZbp8g9" : {
    "actualizacion" : 1534725888525,
    "calificacion" : 0,
    "cre_id" : "PL/363/EXP/ES/2015",
    "direccion" : "Avenida Insurgentes No. 2795 Oriente",
    "lat" : "21.47486",
    "lng" : "-104.8595",
    "marca" : "pemex",
    "nombre" : "GRUPO OCTANO, S.A. DE C.V.",
    "url" : "myimg"
  },
  "-LKJwOGOLLZgNL-W1tO0" : {
    "actualizacion" : 1534725888525,
    "calificacion" : 0,
    "cre_id" : "PL/390/EXP/ES/2015",
    "direccion" : "Boulevard Poseidón No. 1715 Poniente",
    "lat" : "25.82133",
    "lng" : "-108.9919",
    "marca" : "pemex",
    "nombre" : "SERVICIOS DEL VALLE DEL FUERTE, S.A. DE C.V.",
    "url" : "myimg"
  },
  "-LKJwOGOLLZgNL-W1tO1" : {
    "actualizacion" : 1534725888525,
    "calificacion" : 0,
    "cre_id" : "PL/527/EXP/ES/2015",
    "direccion" : "Autopista Saltillo - Monterrey No. 9140",
    "lat" : "25.50189",
    "lng" : "-100.9627",
    "marca" : "pemex",
    "nombre" : "PETROMAX, S.A. DE C.V.",
    "url" : "myimg"
  },
  "-LKJwOGOLLZgNL-W1tO2" : {
    "actualizacion" : 1534725888525,
    "calificacion" : 0,
    "cre_id" : "PL/791/EXP/ES/2015",
    "direccion" : "Libramiento Manuel Pérez Treviño No. 300",
    "lat" : "28.70271",
    "lng" : "-100.5463",
    "marca" : "pemex",
    "nombre" : "OPERADORA LAS CRUCES SA DE CV",
    "url" : "myimg"
  },
  "-LKJwOGPO1tnOAjR_eRa" : {
    "actualizacion" : 1534725888525,
    "calificacion" : 0,
    "cre_id" : "PL/478/EXP/ES/2015",
    "direccion" : "Periférico de La Juventud No. 9701",
    "lat" : "28.68869",
    "lng" : "-106.1335",
    "marca" : "pemex",
    "nombre" : "PETROMAX, S.A. DE C.V.",
    "url" : "myimg"
  },
  "-LKJwOGPO1tnOAjR_eRb" : {
    "actualizacion" : 1534725888525,
    "calificacion" : 0,
    "cre_id" : "PL/830/EXP/ES/2015",
    "direccion" : "División del Norte No. 464",
    "lat" : "31.72121",
    "lng" : "-106.4936",
    "marca" : "pemex",
    "nombre" : "GRUPO GOCALVI SA DE CV",
    "url" : "myimg"
  },
  "-LKJwOGPO1tnOAjR_eRc" : {
    "actualizacion" : 1534725888525,
    "calificacion" : 0,
    "cre_id" : "PL/726/EXP/ES/2015",
    "direccion" : "Boulevard Benito Juárez No. 490",
    "lat" : "32.56519",
    "lng" : "-116.6503",
    "marca" : "pemex",
    "nombre" : "Estacion El Encanto S.A. de C.V.",
    "url" : "myimg"
  },
  "-LKJwOGQ3hzq8VQXYXuF" : {
    "actualizacion" : 1534725888525,
    "calificacion" : 0,
    "cre_id" : "PL/382/EXP/ES/2015",
    "direccion" : "Calzada de Los Monarcas No. 1198",
    "lat" : "32.59637",
    "lng" : "-115.483",
    "marca" : "pemex",
    "nombre" : "GRUPO EMPRESARIAL CACHANILLA SA DE CV",
    "url" : "myimg"
  },
  "-LKJwOGQ3hzq8VQXYXuG" : {
    "actualizacion" : 1534725888525,
    "calificacion" : 0,
    "cre_id" : "PL/864/EXP/ES/2015",
    "direccion" : "Avenida Canal de Castera No. 72",
    "lat" : "19.67295",
    "lng" : "-99.07876",
    "marca" : "pemex",
    "nombre" : "Gasolinería Turquesa, S.A. de C.V. ",
    "url" : "myimg"
  },
  "-LKJwOGQ3hzq8VQXYXuH" : {
    "actualizacion" : 1534725888525,
    "calificacion" : 0,
    "cre_id" : "PL/381/EXP/ES/2015",
    "direccion" : "Carretera Al Ejido 20 de Noviembre No. 1000 Oriente",
    "lat" : "25.76621",
    "lng" : "-108.9903",
    "marca" : "pemex",
    "nombre" : "SERVICIOS DEL VALLE DEL FUERTE, S.A. DE C.V.",
    "url" : "myimg"
  },
  "-LKJwOGQ3hzq8VQXYXuI" : {
    "actualizacion" : 1534725888525,
    "calificacion" : 0,
    "cre_id" : "PL/469/EXP/ES/2015",
    "direccion" : "Avenida Ruíz Cortines No. 9000 Y 9000-1",
    "lat" : "25.76333",
    "lng" : "-100.4128",
    "marca" : "pemex",
    "nombre" : "PETROMAX, S.A. DE C.V.",
    "url" : "myimg"
  },
  "-LKJwOGRqJnR5XTK_rxF" : {
    "actualizacion" : 1534725888525,
    "calificacion" : 0,
    "cre_id" : "PL/869/EXP/ES/2015",
    "direccion" : "Avenida de Las Aguas No. 23251",
    "lat" : "32.50251",
    "lng" : "-116.8668",
    "marca" : "pemex",
    "nombre" : "ESTACION RAEL, S. DE R.L. DE C.V.",
    "url" : "myimg"
  },
  "-LKJwOGRqJnR5XTK_rxG" : {
    "actualizacion" : 1534725888525,
    "calificacion" : 0,
    "cre_id" : "PL/535/EXP/ES/2015",
    "direccion" : "Carretera Federal 200 Tepic -Puerto Vallarta No. 18 Oriente Bahía de Banderas",
    "lat" : "20.95066",
    "lng" : "-105.3483",
    "marca" : "pemex",
    "nombre" : "GRUPO OCTANO, S.A. DE C.V.",
    "url" : "myimg"
  },
  "-LKJwOGRqJnR5XTK_rxH" : {
    "actualizacion" : 1534725888525,
    "calificacion" : 0,
    "cre_id" : "PL/376/EXP/ES/2015",
    "direccion" : "Benjamín Hill No. 73",
    "lat" : "25.70819",
    "lng" : "-108.7157",
    "marca" : "pemex",
    "nombre" : "MULTISERVICIOS LA PILARICA SA DE CV ",
    "url" : "myimg"
  },
  "-LKJwOGS2WXLXPtemg6m" : {
    "actualizacion" : 1534725888525,
    "calificacion" : 0,
    "cre_id" : "PL/776/EXP/ES/2015",
    "direccion" : "Avenida Municipio Libre No. 88 Y Esquina Libertad",
    "lat" : "31.7203",
    "lng" : "-106.4733",
    "marca" : "pemex",
    "nombre" : "Diaz Gas, S.A. de C.V.",
    "url" : "myimg"
  },
  "-LKJwOGS2WXLXPtemg6n" : {
    "actualizacion" : 1534725888525,
    "calificacion" : 0,
    "cre_id" : "PL/682/EXP/ES/2015",
    "direccion" : "Calzada H. Colegio Militar No. 998",
    "lat" : "32.64334",
    "lng" : "-115.506",
    "marca" : "pemex",
    "nombre" : "ESTACION RAEL, S. DE R.L. DE C.V.",
    "url" : "myimg"
  },
  "-LKJwOGS2WXLXPtemg6o" : {
    "actualizacion" : 1534725888525,
    "calificacion" : 0,
    "cre_id" : "PL/597/EXP/ES/2015",
    "direccion" : "Boulevard Heberto Castillo No. 1000",
    "lat" : "25.78744",
    "lng" : "-100.5805",
    "marca" : "pemex",
    "nombre" : "PETROMAX, S.A. DE C.V.",
    "url" : "myimg"
  },
  "-LKJwOGTK6kkRxfqigJi" : {
    "actualizacion" : 1534725888525,
    "calificacion" : 0,
    "cre_id" : "PL/400/EXP/ES/2015",
    "direccion" : "Periférico Paseo de La Republica No. 3755",
    "lat" : "19.67717",
    "lng" : "-101.2223",
    "marca" : "pemex",
    "nombre" : "GRUPO OCTANO, S.A. DE C.V.",
    "url" : "myimg"
  },
  "-LKJwOGTK6kkRxfqigJj" : {
    "actualizacion" : 1534725888525,
    "calificacion" : 0,
    "cre_id" : "PL/434/EXP/ES/2015",
    "direccion" : "Boulevard Los Fundadores No. 850",
    "lat" : "25.44611",
    "lng" : "-100.846",
    "marca" : "pemex",
    "nombre" : "PETROMAX, S.A. DE C.V.",
    "url" : "myimg"
  },
  "-LKJwOGTK6kkRxfqigJk" : {
    "actualizacion" : 1534725888525,
    "calificacion" : 0,
    "cre_id" : "PL/673/EXP/ES/2015",
    "direccion" : "Carretera Palau - Múzquiz Km 26 S/N",
    "lat" : "27.88953",
    "lng" : "-101.4273",
    "marca" : "pemex",
    "nombre" : "SERVICIO PALAU, SA DE CV",
    "url" : "myimg"
  },
  "-LKJwOGTK6kkRxfqigJl" : {
    "actualizacion" : 1534725888525,
    "calificacion" : 0,
    "cre_id" : "PL/886/EXP/ES/2015",
    "direccion" : "Boulevard Miguel Alemán No. 1200",
    "lat" : "25.54451",
    "lng" : "-103.5191",
    "marca" : "pemex",
    "nombre" : "ARY SUPER SERVICIOS II, SA DE CV",
    "url" : "myimg"
  },
  "-LKJwOGTK6kkRxfqigJm" : {
    "actualizacion" : 1534725888525,
    "calificacion" : 0,
    "cre_id" : "PL/872/EXP/ES/2015",
    "direccion" : "Avenida Juárez No. 245",
    "lat" : "18.65904",
    "lng" : "-91.83187",
    "marca" : "pemex",
    "nombre" : "Gaeli Diesel, S.A. de C.V.",
    "url" : "myimg"
  },
  "-LKJwOGUi9sjZoXSbJFC" : {
    "actualizacion" : 1534725888525,
    "calificacion" : 0,
    "cre_id" : "PL/537/EXP/ES/2015",
    "direccion" : "Avenida Vicente Villada Esquina Ferrocarril Hidalgo",
    "lat" : "19.47922",
    "lng" : "-99.10912",
    "marca" : "pemex",
    "nombre" : "PETROMAX, S.A. DE C.V.",
    "url" : "myimg"
  },
  "-LKJwOGUi9sjZoXSbJFD" : {
    "actualizacion" : 1534725888525,
    "calificacion" : 0,
    "cre_id" : "PL/670/EXP/ES/2015",
    "direccion" : "Aquiles Serdán No. 991",
    "lat" : "32.53784",
    "lng" : "-117.0165",
    "marca" : "pemex",
    "nombre" : "SERVICIO CIBOLA, S.A. DE C.V.",
    "url" : "myimg"
  },
  "-LKJwOGUi9sjZoXSbJFE" : {
    "actualizacion" : 1534725888525,
    "calificacion" : 0,
    "cre_id" : "PL/844/EXP/ES/2015",
    "direccion" : "Carretera Internacional No. 6154",
    "lat" : "16.76767",
    "lng" : "-93.1921",
    "marca" : "pemex",
    "nombre" : "COMBUSTIBLES Y REPARACIONES DE CHIAPAS SA DE CV",
    "url" : "myimg"
  },
  "-LKJwOGVixvT9AMFAjdz" : {
    "actualizacion" : 1534725888525,
    "calificacion" : 0,
    "cre_id" : "PL/657/EXP/ES/2015",
    "direccion" : "Portes Gil No. 64 Primera",
    "lat" : "32.57238",
    "lng" : "-116.6227",
    "marca" : "pemex",
    "nombre" : "ESTACION LA VICTORIA, S.A. DE C.V.",
    "url" : "myimg"
  },
  "-LKJwOGVixvT9AMFAje-" : {
    "actualizacion" : 1534725888525,
    "calificacion" : 0,
    "cre_id" : "PL/578/EXP/ES/2015",
    "direccion" : "Avenida Universidad No. 960 Esquina Bernardo Reyes",
    "lat" : "25.75637",
    "lng" : "-100.2961",
    "marca" : "pemex",
    "nombre" : "PETROMAX, S.A. DE C.V.",
    "url" : "myimg"
  },
  "-LKJwOGVixvT9AMFAje0" : {
    "actualizacion" : 1534725888525,
    "calificacion" : 0,
    "cre_id" : "PL/631/EXP/ES/2015",
    "direccion" : "Vialidad Principal Lt. 1 Circuito Fruta Y Legumbres",
    "lat" : "19.37437",
    "lng" : "-99.09545",
    "marca" : "pemex",
    "nombre" : "Gasolinería Magnolias, S.A. de C.V.",
    "url" : "myimg"
  },
  "-LKJwOGVixvT9AMFAje1" : {
    "actualizacion" : 1534725888525,
    "calificacion" : 0,
    "cre_id" : "PL/782/EXP/ES/2015",
    "direccion" : "Boulevard 5 de Febrero No. 2990 Esquina Jaime Bravo",
    "lat" : "24.1315",
    "lng" : "-110.2967",
    "marca" : "pemex",
    "nombre" : "OPERADORA DE COMBUSTIBLE SA DE CV",
    "url" : "myimg"
  },
  "-LKJwOGVixvT9AMFAje2" : {
    "actualizacion" : 1534725888525,
    "calificacion" : 0,
    "cre_id" : "PL/552/EXP/ES/2015",
    "direccion" : "Carretera a San Fernando S/N",
    "lat" : "26.00909",
    "lng" : "-98.27705",
    "marca" : "pemex",
    "nombre" : "PETROMAX, S.A. DE C.V.",
    "url" : "myimg"
  },
  "-LKJwOGWUjIzIE7Ds1PO" : {
    "actualizacion" : 1534725888525,
    "calificacion" : 0,
    "cre_id" : "PL/605/EXP/ES/2015",
    "direccion" : "Cucapah No. 20028",
    "lat" : "32.51204",
    "lng" : "-116.9097",
    "marca" : "pemex",
    "nombre" : "PETROMAX, S.A. DE C.V.",
    "url" : "myimg"
  },
  "-LKJwOGWUjIzIE7Ds1PP" : {
    "actualizacion" : 1534725888525,
    "calificacion" : 0,
    "cre_id" : "PL/361/EXP/ES/2015",
    "direccion" : "Carretera Internacional México-Nogales Km 1621 S/N",
    "lat" : "25.8021",
    "lng" : "-108.9416",
    "marca" : "pemex",
    "nombre" : "MULTISERVICIOS LA PILARICA SA DE CV ",
    "url" : "myimg"
  },
  "-LKJwOGWUjIzIE7Ds1PQ" : {
    "actualizacion" : 1534725888525,
    "calificacion" : 0,
    "cre_id" : "PL/840/EXP/ES/2015",
    "direccion" : "Avenida Playa de Los Picos No. 96",
    "lat" : "20.76174",
    "lng" : "-105.3485",
    "marca" : "pemex",
    "nombre" : "PETROLIFEROS LA TERRITORIAL, S. DE R.L. DE C.V.",
    "url" : "myimg"
  },
  "-LKJwOGXdEGWxL8tZlrd" : {
    "actualizacion" : 1534725888525,
    "calificacion" : 0,
    "cre_id" : "PL/521/EXP/ES/2015",
    "direccion" : "Avenida Félix Galván No. 520",
    "lat" : "25.42441",
    "lng" : "-100.1539",
    "marca" : "pemex",
    "nombre" : "PETROMAX, S.A. DE C.V.",
    "url" : "myimg"
  },
  "-LKJwOGXdEGWxL8tZlre" : {
    "actualizacion" : 1534725888525,
    "calificacion" : 0,
    "cre_id" : "PL/543/EXP/ES/2015",
    "direccion" : "Periférico Torreón - Gómez-Lerdo Km 4.5",
    "lat" : "25.5994",
    "lng" : "-103.4968",
    "marca" : "pemex",
    "nombre" : "PETROMAX, S.A. DE C.V.",
    "url" : "myimg"
  },
  "-LKJwOGXdEGWxL8tZlrf" : {
    "actualizacion" : 1534725888525,
    "calificacion" : 0,
    "cre_id" : "PL/529/EXP/ES/2015",
    "direccion" : "Lt. 1 Mz. 2 Prolongación Juárez S/N",
    "lat" : "25.53979",
    "lng" : "-103.3584",
    "marca" : "pemex",
    "nombre" : "PETROMAX, S.A. DE C.V.",
    "url" : "myimg"
  },
  "-LKJwOGYn3r8gooODcpG" : {
    "actualizacion" : 1534725888525,
    "calificacion" : 0,
    "cre_id" : "PL/515/EXP/ES/2015",
    "direccion" : "Avenida Rodhesia No. 501",
    "lat" : "25.73066",
    "lng" : "-100.1625",
    "marca" : "pemex",
    "nombre" : "PETROMAX, S.A. DE C.V.",
    "url" : "myimg"
  },
  "-LKJwOGYn3r8gooODcpH" : {
    "actualizacion" : 1534725888525,
    "calificacion" : 0,
    "cre_id" : "PL/763/EXP/ES/2015",
    "direccion" : "Carretera 30 Km 12 No. 2000 Fraccionamiento San Antonio",
    "lat" : "26.99841",
    "lng" : "-101.4921",
    "marca" : "pemex",
    "nombre" : "SERVICIO 8 DE ENERO S.A. DE C.V.",
    "url" : "myimg"
  },
  "-LKJwOGYn3r8gooODcpI" : {
    "actualizacion" : 1534725888525,
    "calificacion" : 0,
    "cre_id" : "PL/703/EXP/ES/2015",
    "direccion" : "Lauro Rendón Norte 112",
    "lat" : "23.73274",
    "lng" : "-99.16292",
    "marca" : "pemex",
    "nombre" : "GASOLINERA EL 27 SA DE CV",
    "url" : "myimg"
  },
  "-LKJwOGYn3r8gooODcpJ" : {
    "actualizacion" : 1534725888525,
    "calificacion" : 0,
    "cre_id" : "PL/486/EXP/ES/2015",
    "direccion" : "Boulevard Miguel de La Madrid Km 8 Lado Sur",
    "lat" : "25.69145",
    "lng" : "-100.1952",
    "marca" : "pemex",
    "nombre" : "PETROMAX, S.A. DE C.V.",
    "url" : "myimg"
  },
  "-LKJwOGZzkiphIPTRYzH" : {
    "actualizacion" : 1534725888525,
    "calificacion" : 0,
    "cre_id" : "PL/863/EXP/ES/2015",
    "direccion" : "Avenida Francisco I. Madero No. 600",
    "lat" : "32.66468",
    "lng" : "-115.4868",
    "marca" : "pemex",
    "nombre" : "Administradora Profesional de Gasolineras de México, S. de R. L. de C. V.",
    "url" : "myimg"
  },
  "-LKJwOGZzkiphIPTRYzI" : {
    "actualizacion" : 1534725888525,
    "calificacion" : 0,
    "cre_id" : "PL/602/EXP/ES/2015",
    "direccion" : "Boulevard Díaz Ordaz No. 3111",
    "lat" : "25.67348",
    "lng" : "-100.3921",
    "marca" : "pemex",
    "nombre" : "PETROMAX, S.A. DE C.V.",
    "url" : "myimg"
  },
  "-LKJwOGZzkiphIPTRYzJ" : {
    "actualizacion" : 1534725888525,
    "calificacion" : 0,
    "cre_id" : "PL/826/EXP/ES/2015",
    "direccion" : "Carretera Lechería Texcoco S/N",
    "lat" : "19.61582",
    "lng" : "-99.02579",
    "marca" : "pemex",
    "nombre" : "Estación de Servicio Sauvage, S.A. de C.V.",
    "url" : "myimg"
  },
  "-LKJwOG_G4I-ksu2rmy7" : {
    "actualizacion" : 1534725888525,
    "calificacion" : 0,
    "cre_id" : "PL/411/EXP/ES/2015",
    "direccion" : "Aquiles Serdán No. 31",
    "lat" : "19.82875",
    "lng" : "-101.0389",
    "marca" : "pemex",
    "nombre" : "GRUPO OCTANO, S.A. DE C.V.",
    "url" : "myimg"
  },
  "-LKJwOG_G4I-ksu2rmy8" : {
    "actualizacion" : 1534725888525,
    "calificacion" : 0,
    "cre_id" : "PL/642/EXP/ES/2015",
    "direccion" : "Avenida del Roble No. 14058",
    "lat" : "32.43441",
    "lng" : "-116.9525",
    "marca" : "pemex",
    "nombre" : "ESTACION DEL ROBLE, S.A. DE C.V.",
    "url" : "myimg"
  },
  "-LKJwOG_G4I-ksu2rmy9" : {
    "actualizacion" : 1534725888525,
    "calificacion" : 0,
    "cre_id" : "PL/541/EXP/ES/2015",
    "direccion" : "Avenida de Las Flores No. 1400",
    "lat" : "25.71714",
    "lng" : "-100.2357",
    "marca" : "pemex",
    "nombre" : "PETROMAX, S.A. DE C.V.",
    "url" : "myimg"
  },
  "-LKJwOGaQ3dspQJ4LnHf" : {
    "actualizacion" : 1534725888525,
    "calificacion" : 0,
    "cre_id" : "PL/758/EXP/ES/2015",
    "direccion" : "Avenida Tercer Anillo Periférico No. 151",
    "lat" : "19.2684",
    "lng" : "-103.7026",
    "marca" : "pemex",
    "nombre" : "GASOPRIM SA DE CV",
    "url" : "myimg"
  },
  "-LKJwOGaQ3dspQJ4LnHg" : {
    "actualizacion" : 1534725888525,
    "calificacion" : 0,
    "cre_id" : "PL/420/EXP/ES/2015",
    "direccion" : "Libramiento Tepic-Mazatlán No. 48",
    "lat" : "21.52014",
    "lng" : "-104.9266",
    "marca" : "pemex",
    "nombre" : "GRUPO OCTANO, S.A. DE C.V.",
    "url" : "myimg"
  },
  "-LKJwOGaQ3dspQJ4LnHh" : {
    "actualizacion" : 1534725888525,
    "calificacion" : 0,
    "cre_id" : "PL/369/EXP/ES/2015",
    "direccion" : "Boulevard Centenario Oriente No. 660",
    "lat" : "25.76829",
    "lng" : "-108.9937",
    "marca" : "pemex",
    "nombre" : "MULTISERVICIOS LA PILARICA SA DE CV ",
    "url" : "myimg"
  },
  "-LKJwOGaQ3dspQJ4LnHi" : {
    "actualizacion" : 1534725888525,
    "calificacion" : 0,
    "cre_id" : "PL/843/EXP/ES/2015",
    "direccion" : "Paseo de La Reforma No. 1005",
    "lat" : "19.42066",
    "lng" : "-99.21804",
    "marca" : "pemex",
    "nombre" : "GASOLINERIA LOMALINDA 0194 S.A DE C.V.",
    "url" : "myimg"
  },
  "-LKJwOGb_F1bGOZoW85Z" : {
    "actualizacion" : 1534725888525,
    "calificacion" : 0,
    "cre_id" : "PL/509/EXP/ES/2015",
    "direccion" : "Carretera La Cruz Punta de Mita Poniente No. 78",
    "lat" : "20.76066",
    "lng" : "-105.3746",
    "marca" : "pemex",
    "nombre" : "GRUPO OCTANO, S.A. DE C.V.",
    "url" : "myimg"
  },
  "-LKJwOGb_F1bGOZoW85_" : {
    "actualizacion" : 1534725888525,
    "calificacion" : 0,
    "cre_id" : "PL/488/EXP/ES/2015",
    "direccion" : "Boulevard Cuauhtémoc No. 684",
    "lat" : "25.47087",
    "lng" : "-100.9607",
    "marca" : "pemex",
    "nombre" : "PETROMAX, S.A. DE C.V.",
    "url" : "myimg"
  },
  "-LKJwOGb_F1bGOZoW85a" : {
    "actualizacion" : 1534725888525,
    "calificacion" : 0,
    "cre_id" : "PL/753/EXP/ES/2015",
    "direccion" : "Carretera Cerro de Ortega Tecomán Kilometro 1+100 S/N",
    "lat" : "18.76095",
    "lng" : "-103.729",
    "marca" : "pemex",
    "nombre" : "ENERGETICOS CERRO DE ORTEGA SA DE CV",
    "url" : "myimg"
  },
  "-LKJwOGb_F1bGOZoW85b" : {
    "actualizacion" : 1534725888525,
    "calificacion" : 0,
    "cre_id" : "PL/743/EXP/ES/2015",
    "direccion" : "Carretera Panamericana Comitán Cd. Cuauhtémoc Km 251+100 S/N",
    "lat" : "15.70444",
    "lng" : "-91.99803",
    "marca" : "pemex",
    "nombre" : "DESARROLLO INTEGRAL OCOZOCOAUTLA SA DE CV ",
    "url" : "myimg"
  },
  "-LKJwOGb_F1bGOZoW85c" : {
    "actualizacion" : 1534725888525,
    "calificacion" : 0,
    "cre_id" : "PL/565/EXP/ES/2015",
    "direccion" : "Avenida Allende Esquina Colon S/N Segundo de Cobián",
    "lat" : "25.54146",
    "lng" : "-103.4483",
    "marca" : "pemex",
    "nombre" : "PETROMAX, S.A. DE C.V.",
    "url" : "myimg"
  },
  "-LKJwOGcVlAHF5SYpopL" : {
    "actualizacion" : 1534725888525,
    "calificacion" : 0,
    "cre_id" : "PL/718/EXP/ES/2015",
    "direccion" : "Paseo Morelos No. 920",
    "lat" : "32.56567",
    "lng" : "-116.585",
    "marca" : "pemex",
    "nombre" : "PETROLIFEROS LA TERRITORIAL, S. DE R.L. DE C.V.",
    "url" : "myimg"
  },
  "-LKJwOGcVlAHF5SYpopM" : {
    "actualizacion" : 1534725888525,
    "calificacion" : 0,
    "cre_id" : "PL/526/EXP/ES/2015",
    "direccion" : "Ma. Concepción Barragán No. 203",
    "lat" : "25.76571",
    "lng" : "-100.2573",
    "marca" : "pemex",
    "nombre" : "PETROMAX, S.A. DE C.V.",
    "url" : "myimg"
  },
  "-LKJwOGcVlAHF5SYpopN" : {
    "actualizacion" : 1534725888525,
    "calificacion" : 0,
    "cre_id" : "PL/512/EXP/ES/2015",
    "direccion" : "Carretera México - Guadalajara",
    "lat" : "20.54878",
    "lng" : "-103.4711",
    "marca" : "pemex",
    "nombre" : "PETROMAX, S.A. DE C.V.",
    "url" : "myimg"
  },
  "-LKJwOGcVlAHF5SYpopO" : {
    "actualizacion" : 1534725888526,
    "calificacion" : 0,
    "cre_id" : "PL/539/EXP/ES/2015",
    "direccion" : "Boulevard Hidalgo No. 106-C",
    "lat" : "26.07043",
    "lng" : "-98.33169",
    "marca" : "pemex",
    "nombre" : "PETROMAX, S.A. DE C.V.",
    "url" : "myimg"
  },
  "-LKJwOGcVlAHF5SYpopP" : {
    "actualizacion" : 1534725888526,
    "calificacion" : 0,
    "cre_id" : "PL/644/EXP/ES/2015",
    "direccion" : "Paseo del Prado No. 12802",
    "lat" : "32.40604",
    "lng" : "-116.9668",
    "marca" : "pemex",
    "nombre" : "SERV.EL TRIANGULO DEL REFUGIO,S.DER.L.DEC.V.",
    "url" : "myimg"
  },
  "-LKJwOGdFF2Zhgfj8hnN" : {
    "actualizacion" : 1534725888526,
    "calificacion" : 0,
    "cre_id" : "PL/616/EXP/ES/2015",
    "direccion" : "Periférico Nueva España No. 982",
    "lat" : "19.70107",
    "lng" : "-101.1545",
    "marca" : "pemex",
    "nombre" : "GRUPO OCTANO, S.A. DE C.V.",
    "url" : "myimg"
  },
  "-LKJwOGdFF2Zhgfj8hnO" : {
    "actualizacion" : 1534725888526,
    "calificacion" : 0,
    "cre_id" : "PL/862/EXP/ES/2015",
    "direccion" : "Barranco Azul No. 2030",
    "lat" : "31.64773",
    "lng" : "-106.4634",
    "marca" : "pemex",
    "nombre" : "GRUPO GOCALVI SA DE CV",
    "url" : "myimg"
  },
  "-LKJwOGdFF2Zhgfj8hnP" : {
    "actualizacion" : 1534725888526,
    "calificacion" : 0,
    "cre_id" : "PL/637/EXP/ES/2015",
    "direccion" : "Boulevard Agua Caliente No. 128-17",
    "lat" : "32.50862",
    "lng" : "-116.9861",
    "marca" : "pemex",
    "nombre" : "SERVICIO CIBOLA, S.A. DE C.V.",
    "url" : "myimg"
  },
  "-LKJwOGdFF2Zhgfj8hnQ" : {
    "actualizacion" : 1534725888526,
    "calificacion" : 0,
    "cre_id" : "PL/449/EXP/ES/2015",
    "direccion" : "Carretera Transpeninsular No. 8781",
    "lat" : "31.79353",
    "lng" : "-116.5928",
    "marca" : "pemex",
    "nombre" : "PETROMAX, S.A. DE C.V.",
    "url" : "myimg"
  },
  "-LKJwOGdFF2Zhgfj8hnR" : {
    "actualizacion" : 1534725888526,
    "calificacion" : 0,
    "cre_id" : "PL/732/EXP/ES/2015",
    "direccion" : "Boulevard Cuauhtémoc Sur No. 4690",
    "lat" : "32.49725",
    "lng" : "-117.0203",
    "marca" : "pemex",
    "nombre" : "SERVICIO EFIGAS, S. DE R.L. DE C.V.",
    "url" : "myimg"
  },
  "-LKJwOGe4-KIwI1CrQbd" : {
    "actualizacion" : 1534725888526,
    "calificacion" : 0,
    "cre_id" : "PL/694/EXP/ES/2015",
    "direccion" : "Prolongación Guadalupe Victoria No. 79",
    "lat" : "19.2257",
    "lng" : "-99.2113",
    "marca" : "pemex",
    "nombre" : "Operadora Santa Elena, S.A. de C.V.",
    "url" : "myimg"
  },
  "-LKJwOGe4-KIwI1CrQbe" : {
    "actualizacion" : 1534725888526,
    "calificacion" : 0,
    "cre_id" : "PL/362/EXP/ES/2015",
    "direccion" : "Boulevard Adolfo López Mateos No. 1560 Norte",
    "lat" : "25.80633",
    "lng" : "-108.9826",
    "marca" : "pemex",
    "nombre" : "SERVICIOS DEL VALLE DEL FUERTE, S.A. DE C.V.",
    "url" : "myimg"
  },
  "-LKJwOGe4-KIwI1CrQbf" : {
    "actualizacion" : 1534725888526,
    "calificacion" : 0,
    "cre_id" : "PL/813/EXP/ES/2015",
    "direccion" : "Carretera 57 No. 1000",
    "lat" : "28.44654",
    "lng" : "-100.7522",
    "marca" : "pemex",
    "nombre" : "GASOLINERA EL ENCINO S.A. DE C.V",
    "url" : "myimg"
  },
  "-LKJwOGe4-KIwI1CrQbg" : {
    "actualizacion" : 1534725888526,
    "calificacion" : 0,
    "cre_id" : "PL/456/EXP/ES/2015",
    "direccion" : "Boulevard Nazario Ortiz Garza S/N Esquina Rufino Tamayo",
    "lat" : "25.45598",
    "lng" : "-100.9761",
    "marca" : "pemex",
    "nombre" : "PETROMAX, S.A. DE C.V.",
    "url" : "myimg"
  },
  "-LKJwOGfsSz5niXOdzxk" : {
    "actualizacion" : 1534725888526,
    "calificacion" : 0,
    "cre_id" : "PL/455/EXP/ES/2015",
    "direccion" : "Carretera Monterrey-Saltillo No. 1602",
    "lat" : "25.68477",
    "lng" : "-100.4806",
    "marca" : "pemex",
    "nombre" : "PETROMAX, S.A. DE C.V.",
    "url" : "myimg"
  },
  "-LKJwOGfsSz5niXOdzxl" : {
    "actualizacion" : 1534725888526,
    "calificacion" : 0,
    "cre_id" : "PL/385/EXP/ES/2015",
    "direccion" : "Gral. Santiago Vidaurri Y Calle Defensores de La Patria",
    "lat" : "32.58577",
    "lng" : "-115.4363",
    "marca" : "pemex",
    "nombre" : "GRUPO EMPRESARIAL CACHANILLA SA DE CV",
    "url" : "myimg"
  },
  "-LKJwOGfsSz5niXOdzxm" : {
    "actualizacion" : 1534725888526,
    "calificacion" : 0,
    "cre_id" : "PL/652/EXP/ES/2015",
    "direccion" : "Camino Arenero Mz. 110 - a Lt. 10155",
    "lat" : "19.44123",
    "lng" : "-99.24943",
    "marca" : "pemex",
    "nombre" : "Servicio la Guitarra, S.A. de C.V.",
    "url" : "myimg"
  },
  "-LKJwOGfsSz5niXOdzxn" : {
    "actualizacion" : 1534725888526,
    "calificacion" : 0,
    "cre_id" : "PL/641/EXP/ES/2015",
    "direccion" : "Boulevard Pacífico No. 8491",
    "lat" : "32.46825",
    "lng" : "-116.9871",
    "marca" : "pemex",
    "nombre" : "EST. DE SERVICIO SAGITARIO, S.DER.L.DE C.V.",
    "url" : "myimg"
  },
  "-LKJwOGg3CO5zzFA4iDp" : {
    "actualizacion" : 1534725888526,
    "calificacion" : 0,
    "cre_id" : "PL/462/EXP/ES/2015",
    "direccion" : "Avenida Adolfo López Mateos S/N",
    "lat" : "25.73667",
    "lng" : "-100.2444",
    "marca" : "pemex",
    "nombre" : "PETROMAX, S.A. DE C.V.",
    "url" : "myimg"
  },
  "-LKJwOGg3CO5zzFA4iDq" : {
    "actualizacion" : 1534725888526,
    "calificacion" : 0,
    "cre_id" : "PL/895/EXP/ES/2015",
    "direccion" : "Avenida Ribera de San Cosme No. 114",
    "lat" : "19.4423",
    "lng" : "-99.16319",
    "marca" : "pemex",
    "nombre" : "SEVEN SERVICE, S.A DE C.V.",
    "url" : "myimg"
  },
  "-LKJwOGg3CO5zzFA4iDr" : {
    "actualizacion" : 1534725888526,
    "calificacion" : 0,
    "cre_id" : "PL/767/EXP/ES/2015",
    "direccion" : "Paseo de La Reforma No. 2105",
    "lat" : "25.42712",
    "lng" : "-100.9758",
    "marca" : "pemex",
    "nombre" : "SERVICIOS GASOLINEROS DE MEXICO S.A. DE C.V.",
    "url" : "myimg"
  },
  "-LKJwOGg3CO5zzFA4iDs" : {
    "actualizacion" : 1534725888526,
    "calificacion" : 0,
    "cre_id" : "PL/629/EXP/ES/2015",
    "direccion" : "Avenida Toluca No. 13 Esquina Camino Alamitra Lt. B Mz. 18",
    "lat" : "19.66663",
    "lng" : "-99.13498",
    "marca" : "pemex",
    "nombre" : "Servicio Calatrava, S.A. de C.V.",
    "url" : "myimg"
  },
  "-LKJwOGg3CO5zzFA4iDt" : {
    "actualizacion" : 1534725888526,
    "calificacion" : 0,
    "cre_id" : "PL/375/EXP/ES/2015",
    "direccion" : "Avenida Juárez No. 346 Oriente",
    "lat" : "21.50385",
    "lng" : "-104.8867",
    "marca" : "pemex",
    "nombre" : "GRUPO OCTANO, S.A. DE C.V.",
    "url" : "myimg"
  },
  "-LKJwOGhGCKINLR3BvoG" : {
    "actualizacion" : 1534725888526,
    "calificacion" : 0,
    "cre_id" : "PL/364/EXP/ES/2015",
    "direccion" : "Carretera Mexcaltitán a Tepic-Mazatlán No. 5",
    "lat" : "22.00695",
    "lng" : "-105.2269",
    "marca" : "pemex",
    "nombre" : "GRUPO OCTANO, S.A. DE C.V.",
    "url" : "myimg"
  },
  "-LKJwOGhGCKINLR3BvoH" : {
    "actualizacion" : 1534725888526,
    "calificacion" : 0,
    "cre_id" : "PL/545/EXP/ES/2015",
    "direccion" : "Boulevard Manuel J. Clouthier No. 2 Mz. 14 S/N",
    "lat" : "32.49222",
    "lng" : "-116.9343",
    "marca" : "pemex",
    "nombre" : "PETROMAX, S.A. DE C.V.",
    "url" : "myimg"
  },
  "-LKJwOGhGCKINLR3BvoI" : {
    "actualizacion" : 1534725888526,
    "calificacion" : 0,
    "cre_id" : "PL/430/EXP/ES/2015",
    "direccion" : "Avenida Gustavo Baz No. 2000",
    "lat" : "19.54421",
    "lng" : "-99.20648",
    "marca" : "pemex",
    "nombre" : "PETROMAX, S.A. DE C.V.",
    "url" : "myimg"
  },
  "-LKJwOGhGCKINLR3BvoJ" : {
    "actualizacion" : 1534725888526,
    "calificacion" : 0,
    "cre_id" : "PL/850/EXP/ES/2015",
    "direccion" : "Calzada Anáhuac No. 599",
    "lat" : "32.63718",
    "lng" : "-115.4716",
    "marca" : "pemex",
    "nombre" : "ESTACION RAEL, S. DE R.L. DE C.V.",
    "url" : "myimg"
  },
  "-LKJwOGi2y79e1plKh8e" : {
    "actualizacion" : 1534725888526,
    "calificacion" : 0,
    "cre_id" : "PL/867/EXP/ES/2015",
    "direccion" : "Plutarco Elías Calles S/N",
    "lat" : "18.83838",
    "lng" : "-99.23139",
    "marca" : "pemex",
    "nombre" : "Gasolinería Rubí, S.A. de C.V.",
    "url" : "myimg"
  },
  "-LKJwOGi2y79e1plKh8f" : {
    "actualizacion" : 1534725888526,
    "calificacion" : 0,
    "cre_id" : "PL/781/EXP/ES/2015",
    "direccion" : "Boulevard de Las Américas No. 2560",
    "lat" : "32.52137",
    "lng" : "-116.9867",
    "marca" : "pemex",
    "nombre" : "OPERADORA EL PENASCO SA DE CV (E12522)",
    "url" : "myimg"
  },
  "-LKJwOGi2y79e1plKh8g" : {
    "actualizacion" : 1534725888526,
    "calificacion" : 0,
    "cre_id" : "PL/624/EXP/ES/2015",
    "direccion" : "Avenida Luis Donaldo Colosio No. 1100",
    "lat" : "25.76576",
    "lng" : "-100.3987",
    "marca" : "pemex",
    "nombre" : "PETROMAX, S.A. DE C.V.",
    "url" : "myimg"
  },
  "-LKJwOGi2y79e1plKh8h" : {
    "actualizacion" : 1534725888526,
    "calificacion" : 0,
    "cre_id" : "PL/406/EXP/ES/2015",
    "direccion" : "Boulevard Marcario Gaxiola Sur No. 881",
    "lat" : "25.77709",
    "lng" : "-108.9852",
    "marca" : "pemex",
    "nombre" : "SERVICIOS DEL VALLE DEL FUERTE, S.A. DE C.V.",
    "url" : "myimg"
  },
  "-LKJwOGi2y79e1plKh8i" : {
    "actualizacion" : 1534725888526,
    "calificacion" : 0,
    "cre_id" : "PL/418/EXP/ES/2015",
    "direccion" : "Anillo Periférico No. 4230",
    "lat" : "20.70532",
    "lng" : "-103.4485",
    "marca" : "pemex",
    "nombre" : "GRUPO OCTANO, S.A. DE C.V.",
    "url" : "myimg"
  },
  "-LKJwOGjdvxF9BNUwADr" : {
    "actualizacion" : 1534725888526,
    "calificacion" : 0,
    "cre_id" : "PL/482/EXP/ES/2015",
    "direccion" : "Carretera Nacional Km 263 S/N",
    "lat" : "25.53799",
    "lng" : "-100.219",
    "marca" : "pemex",
    "nombre" : "PETROMAX, S.A. DE C.V.",
    "url" : "myimg"
  },
  "-LKJwOGkO_hRqXtLuhPY" : {
    "actualizacion" : 1534725888526,
    "calificacion" : 0,
    "cre_id" : "PL/479/EXP/ES/2015",
    "direccion" : "Boulevard Las Fuentes Esquina Con Rio Carneros",
    "lat" : "26.05507",
    "lng" : "-98.32028",
    "marca" : "pemex",
    "nombre" : "PETROMAX, S.A. DE C.V.",
    "url" : "myimg"
  },
  "-LKJwOGkO_hRqXtLuhPZ" : {
    "actualizacion" : 1534725888526,
    "calificacion" : 0,
    "cre_id" : "PL/905/EXP/ES/2015",
    "direccion" : "Calzada de Los Corceles No. 300",
    "lat" : "19.36607",
    "lng" : "-99.23235",
    "marca" : "pemex",
    "nombre" : "ESTACION DE SERVICIO CORCELES SA DE CV",
    "url" : "myimg"
  },
  "-LKJwOGkO_hRqXtLuhP_" : {
    "actualizacion" : 1534725888526,
    "calificacion" : 0,
    "cre_id" : "PL/827/EXP/ES/2015",
    "direccion" : "Boulevard Luis Donaldo Colosio No. 919",
    "lat" : "24.05557",
    "lng" : "-104.6564",
    "marca" : "pemex",
    "nombre" : "Servicio Korian S.A. de C.V.",
    "url" : "myimg"
  },
  "-LKJwOGkO_hRqXtLuhPa" : {
    "actualizacion" : 1534725888526,
    "calificacion" : 0,
    "cre_id" : "PL/752/EXP/ES/2015",
    "direccion" : "Libramiento Oscar Flores Tapia Y Carretera 57 S/N Fraccionamiento El Llano",
    "lat" : "25.44036",
    "lng" : "-100.8894",
    "marca" : "pemex",
    "nombre" : "servicio libramiento jlp sa de cv",
    "url" : "myimg"
  },
  "-LKJwOGkO_hRqXtLuhPb" : {
    "actualizacion" : 1534725888526,
    "calificacion" : 0,
    "cre_id" : "PL/530/EXP/ES/2015",
    "direccion" : "Mariano Abasolo No. 916",
    "lat" : "25.424",
    "lng" : "-100.9894",
    "marca" : "pemex",
    "nombre" : "PETROMAX, S.A. DE C.V.",
    "url" : "myimg"
  },
  "-LKJwOGlt5Ydp_mCWZIX" : {
    "actualizacion" : 1534725888526,
    "calificacion" : 0,
    "cre_id" : "PL/595/EXP/ES/2015",
    "direccion" : "Carretera Monterrey-Villa de García No. 711",
    "lat" : "25.69789",
    "lng" : "-100.4674",
    "marca" : "pemex",
    "nombre" : "PETROMAX, S.A. DE C.V.",
    "url" : "myimg"
  },
  "-LKJwOGlt5Ydp_mCWZIY" : {
    "actualizacion" : 1534725888526,
    "calificacion" : 0,
    "cre_id" : "PL/674/EXP/ES/2015",
    "direccion" : "Carretera Escopetazo-Pichucalco Km 13+255 S/N",
    "lat" : "16.80658",
    "lng" : "-92.90816",
    "marca" : "pemex",
    "nombre" : "COMERCIALIZADORA DE COMBUSTIBLES DE CHIAPAS, SA DE CV",
    "url" : "myimg"
  },