[
  {
     "direccion": "Calle 9-A No 304 X 12 Y 12-A Col Santa Gertrudis Copo, CP 97305 Merida, Yucatan",
     "lat": 21.036518,
     "lng": -89.591495,
     "marca": "LA GAS"
  },
  {
     "direccion": "Avenida Jose Lopez Portillo s/n Col. Fraccionamiento Kaniste C.P. 24038 Campeche, Campeche",
     "lat": 19.826327,
     "lng": -90.552363,
     "marca": "LA GAS"
  },
  {
     "direccion": "MZA 8 MZA 1 LOTE 3 INT B AV. TULUM ESQ. NICHUPTE (PLAZA LAS AMERICAS)",
     "lat": 21.14392,
     "lng": -86.82313,
     "marca": "LA GAS"
  },
  {
     "direccion": "Prolongacion Paseo Francisco Javier Mina y Eusebio Castillo, No. 324, Col. Casa Blanca, C.P. 88060 Centro, Tabasco.",
     "lat": 18.000339,
     "lng": -92.919689,
     "marca": "LA GAS"
  },
  {
     "direccion": "Carretera El Portón-Cd Pemex km 23 rancheria el Limón segunda sección, C.P. 86727, Macuspana, Tabasco",
     "lat": 17.84571,
     "lng": -92.50108,
     "marca": "LA GAS"
  },
  {
     "direccion": "Av. Insurgentes Nùm. 288 Col. Leona Vicario, Mza. 14 lotes 1,2,5 y 06 Zona XLII, C.P. 77016 Othón P. Blanco, Quintana Roo.",
     "lat": 18.51959,
     "lng": -88.29958,
     "marca": "LA GAS"
  },
  {
     "direccion": "Avenida Insurgentes #41 lote 1 Esquina Avenida Universidad, Chetumal Q. Roo, C.P. 77058",
     "lat": 18.51364,
     "lng": -88.27996,
     "marca": "LA GAS"
  },
  {
     "direccion": "Av. Álvaro Obregón #342,346 y 348  Col. Centro, Chetumal, Q. Roo C.P. 77000",
     "lat": 18.49746,
     "lng": -88.30565,
     "marca": "LA GAS"
  },
  {
     "direccion": "Prolongación de la Avenida Benito Juárez entre calle 11 y 13 # 24, Poblado de IMI, C.P. 24560, Campeche, Campeche",
     "lat": 19.874144,
     "lng": -90.488439,
     "marca": "LA GAS"
  },
  {
     "direccion": "Lote 2, Manzana 29, Plano 03, Bahía Akumal, Puerto, Aventuras, Q. Roo",
     "lat": 20.506011,
     "lng": -87.229171,
     "marca": "LA GAS"
  },
  {
     "direccion": "Anillo Periférico Manuel Berzunza x 19 diagonal y 26 Tablaje catastral 38980 CP 97302 Col Sodzil Mérida Yucatán (A un costado de Acerofertas)",
     "lat": 21.0439759,
     "lng": -89.6137153,
     "marca": "LA GAS"
  },
  {
     "direccion": "Calle 7 No 512 Col Maya, CP 97134 Merida, Yucatan",
     "lat": 21.021743,
     "lng": -89.576478,
     "marca": "LA GAS"
  },
  {
     "direccion": "CALLE 8a X Circuito Colonias y 39 Colonia Pedregales de Tanlum, Mérida, Yucatán",
     "lat": 20.997678,
     "lng": -89.628362,
     "marca": "LA GAS"
  },
  {
     "direccion": "Calle 51 No. 640 entre Calle 53 y Calle 51B Real Montejo, Mérida, Yucatán C.P. 97302",
     "lat": 21.03826,
     "lng": -89.66869,
     "marca": "LA GAS"
  },
  {
     "direccion": "Av. Isla de Tris No. 111 Col. Francisco I. Madero, C.P. 24190, localidad Ciudad del Carmen, Campeche ",
     "lat": 18.64817,
     "lng": -91.80485,
     "marca": "LA GAS"
  },
  {
     "direccion": "Manzana 46 Zona 1 Lote 1 S/N C.P. 24100 Isla Aguada, Municipio del Carmen, Campeche",
     "lat": 18.78428,
     "lng": -91.49183,
     "marca": "LA GAS"
  },
  {
     "direccion": "Región 11 de la Reserva Territorial del IPAE Manzana 13 Local 1, Tulum Quintana Roo C.P. 77760",
     "lat": 20.21626,
     "lng": -87.445999,
     "marca": "LA GAS"
  },
  {
     "direccion": "CANEK Calle 59-A #601 x 88 y 90 Col. Centro CP97000",
     "lat": 20.977244,
     "lng": -89.643179,
     "marca": "LA GAS"
  },
  {
     "direccion": "Calle 63 No. 302A Fracc. Juan Pablo II entre calle 18 y calle 20 Mérida, Yucatán, C.P. 97246",
     "lat": 20.95944,
     "lng": -89.67609,
     "marca": "LA GAS"
  },
  {
     "direccion": "Region 228, Mza. 104, Lotes 14,15 y 16, Cancun Quintana Roo",
     "lat": 21.175064,
     "lng": -86.860414,
     "marca": "LA GAS"
  },
  {
     "direccion": "Blvd. Luis Donaldo Colosio Smz. 57, Mza. 03, Lote 18-04 (entrada al Fracc. Las Americas) Cancun, Benito Juarez, Quintana Roo",
     "lat": 21.126273,
     "lng": -86.832445,
     "marca": "LA GAS"
  },
  {
     "direccion": "Calle Heberto Castillo MartinezL, Lote 451-05, Manzana 01, Smza 244, C.P. 77500, Cancun, Quintana Roo.",
     "lat": 21.2056,
     "lng": -86.84255,
     "marca": "LA GAS"
  },
  {
     "direccion": "Periferico Tab. Cat. No. 13950. Fcon de Montejo (al lado de transo yucarro) bajo el puente de Dzitia",
     "lat": 21.034022,
     "lng": -89.65586,
     "marca": "LA GAS"
  },
  {
     "direccion": "Carretera Villahermosa Frontera Km. 15 s/n, C.P. 86270, Medellin y Madero 2a. Sección, Villahermosa, Tabasco",
     "lat": 18.113959,
     "lng": -92.864857,
     "marca": "LA GAS"
  },
  {
     "direccion": "Km 19.5 Carretera Merida-Uman c. 21 No 471 Col. Ampliación Ciudad Industrial (a un costado de la empresa Dypaq ) ",
     "lat": 20.919079,
     "lng": -89.700583,
     "marca": "LA GAS"
  },
  {
     "direccion": "Calle 30 mza.2, zona 1, Lote 1, Colonia Unidad, Esfuerzo y Trabajo II C.P. 24350,  Escarcega Campeche.",
     "lat": 18.60761,
     "lng": -90.74789,
     "marca": "LA GAS"
  },
  {
     "direccion": "Carretera Escárcega Villahermosa km. 239,  región del bajo Candelaria,  c.p. 24100 Municipio del Carmen,  Campeche.",
     "lat": 18.38842,
     "lng": -91.19186,
     "marca": "LA GAS"
  },
  {
     "direccion": "Smza 17 Mza 3 Lote 1 Y 2 s/n Av. Libramiento Kabah-Copan (Parque Kabah) ",
     "lat": 21.1431,
     "lng": -86.83428,
     "marca": "LA GAS"
  },
  {
     "direccion": "Av. Nichupte y Kinik Mza 1 Lote 1 Smza 51 Cancun Q.Roo (Gran Plaza) ",
     "lat": 21.14064,
     "lng": -86.8558,
     "marca": "LA GAS"
  },
  {
     "direccion": "Carr Merida-Caucel Tab Cat 10075 CP 97300 (a espaldas de walt mart) ",
     "lat": 20.997824,
     "lng": -89.67592,
     "marca": "LA GAS"
  },
  {
     "direccion": "Calle 23 s/n y calle s/nombre Infonavit Las Palmas III 24029 Candelaria, Campeche",
     "lat": 18.19567,
     "lng": -91.0462,
     "marca": "LA GAS"
  },
  {
     "direccion": "Av. Universidad No. 228 Col. Casa Blanca, C.P. 86060, Centro Tabasco",
     "lat": 18.005681,
     "lng": -92.924247,
     "marca": "LA GAS"
  },
  {
     "direccion": "Calle 19 Num. 25 x 36 Centro, Kanasin , Yucatan CP97370",
     "lat": 20.939701,
     "lng": -89.567602,
     "marca": "LA GAS"
  },
  {
     "direccion": "Carretera federal 180 campeche-merida km 12+035 tramo campeche-koben cp 24500",
     "lat": 19.900596,
     "lng": -90.447301,
     "marca": "LA GAS"
  },
  {
     "direccion": "Av. Lazaro cardenas s/n entre calle peru y solidaridad col. Las flores, san francisco campeche, campeche cp 24097",
     "lat": 19.821336,
     "lng": -90.52585,
     "marca": "LA GAS"
  },
  {
     "direccion": "Av. 45 norte col. Luis Donaldo Colosio II, Mz 559, Lote 03,04,05 y 06 Playa del Carmen Quintana Roo. Cp 77710",
     "lat": 20.655146,
     "lng": -87.06439,
     "marca": "LA GAS"
  },
  {
     "direccion": "Carretera federal 180 campeche-merida km 139 T.C 5967 parcela 108 Z-6 p1/1 Poxilá, Uman, Yucatan",
     "lat": 20.7897848,
     "lng": -89.8162019,
     "marca": "LA GAS"
  },
  {
     "direccion": "Anillo Periférico Manuel Berzunza Colonia Felipe Carillo Puerto Ampliación Cd. Industrial Tablaje Catastral 19016 Mérida, Yucatán, C.P. 97288",
     "lat": 20.95006,
     "lng": -89.703,
     "marca": "LA GAS"
  },
  {
     "direccion": "Carretera Campeche Tenabo Km. 12.070, c.p. 24520  en China Campeche, Campeche ",
     "lat": 19.7918429,
     "lng": -90.61275628,
     "marca": "LA GAS"
  },
  {
     "direccion": "Carretera Federal Campeche Mérida, Tramo Tenabo Hecelchakán, Km. 53.260 en el municipio de Hecelchakan Pomuch Campeche ",
     "lat": 20.1324,
     "lng": -90.16732,
     "marca": "LA GAS"
  },
  {
     "direccion": "Calle 25-C ANILLO PERIFERICO No. 600 col. BENITO JUAREZ  CP 97178,  Merida, Yucatán México",
     "lat": 20.95618,
     "lng": -89.56865,
     "marca": "LA GAS"
  },
  {
     "direccion": "Calle 1 x 54-A y 56 # 218-T Col. Chuburna de hidalgo,  C.P. 97200 Merida Yucatan, ",
     "lat": 21.047977,
     "lng": -89.645004,
     "marca": "LA GAS"
  },
  {
     "direccion": "Calle 3 # 239 x 34 y 60 Col. Xcumpich, Merida Yucatan Mexico, CP. 97204",
     "lat": 21.040701,
     "lng": -89.631808,
     "marca": "LA GAS"
  },
  {
     "direccion": "SM 97 MZA 11 X COMALCALCO S/N LOTE 11 Y 12  COL. CIUDAD INDUSTRIAL CP 77530 Benito Juarez, Cancun Quintana Roo",
     "lat": 21.1483056,
     "lng": -86.860272,
     "marca": "LA GAS"
  },
  {
     "direccion": "MZA. 13 LOTE 3, SM48,  Benito Juarez, Cancún, Q. Roo CP. 77506",
     "lat": 20.979004,
     "lng": -86.8602501,
     "marca": "LA GAS"
  },
  {
     "direccion": "Calle 35 Lote 44-A y 45-A x 20 Poligono 108 Itzimna ( Frente a la Ixtabay)",
     "lat": 20.998029,
     "lng": -89.571016,
     "marca": "LA GAS"
  },
  {
     "direccion": "Calle 43 No. 200 x 4 y 6 Colonia Leandro Valle",
     "lat": 20.99428,
     "lng": -89.5625,
     "marca": "LA GAS"
  }
]