[
  {
     "direccion": "HEROES FERROCARRI NO. 63, LA RIBERA",
     "lat": 19.442049,
     "lng": -99.156182,
     "marca": "Shell"
  },
  {
     "direccion": "AUTOPISTA MÉXICO-PACHUCA Nº4",
     "lat": 19.511701,
     "lng": -99.102744,
     "marca": "Shell"
  },
  {
     "direccion": "BOULEVARD PUERTO AEREO NO. 272",
     "lat": 19.428682,
     "lng": -99.09182,
     "marca": "Shell"
  },
  {
     "direccion": "AV. MEXIQUENSE SIN NUMERO PARCE S/N",
     "lat": 19.353891,
     "lng": -99.153239,
     "marca": "Shell"
  },
  {
     "direccion": "AVENIDA CENTENARIO 1787",
     "lat": 19.491579,
     "lng": -99.099785,
     "marca": "Shell"
  },
  {
     "direccion": "AV. POPOCATEPETL 415",
     "lat": 19.364591,
     "lng": -99.161507,
     "marca": "Shell"
  },
  {
     "direccion": "SAGREDO 265",
     "lat": 19.360967,
     "lng": -99.18894,
     "marca": "Shell"
  },
  {
     "direccion": "AV. 3-A SANTA ROSA, GUSTAVO A. 142",
     "lat": 19.523188,
     "lng": -99.169162,
     "marca": "Shell"
  },
  {
     "direccion": "AV. SAN LUIS TLATILC NO. 25, Y 25-A",
     "lat": 19.470741,
     "lng": -99.240296,
     "marca": "Shell"
  },
  {
     "direccion": "AV. MARIO COLIN COL. LOS REYES IXTA",
     "lat": 19.534484,
     "lng": -99.188808,
     "marca": "Shell"
  },
  {
     "direccion": "PRESIDENTE JUAREZ 27",
     "lat": 19.532219,
     "lng": -99.195341,
     "marca": "Shell"
  },
  {
     "direccion": "MIGUEL HIDALGO 39",
     "lat": 19.520108,
     "lng": -99.230111,
     "marca": "Shell"
  },
  {
     "direccion": "AV. ADOLFO LOPEZ MATEOS 205",
     "lat": 19.540224,
     "lng": -99.230902,
     "marca": "Shell"
  },
  {
     "direccion": "AVENIDA INDEPENDENCIA 112",
     "lat": 19.353891,
     "lng": -99.276205,
     "marca": "Shell"
  },
  {
     "direccion": "TIZMIN HEROES DE PADIERNA, TLAL 121",
     "lat": 19.289719,
     "lng": -99.217115,
     "marca": "Shell"
  },
  {
     "direccion": "VIA GUSTAVO BAZ 49 LOTE 4",
     "lat": 19.588108,
     "lng": -99.194207,
     "marca": "Shell"
  },
  {
     "direccion": "ADOLFO RUIZ CORTINEZ NO.245",
     "lat": 19.552996,
     "lng": -99.274511,
     "marca": "Shell"
  },
  {
     "direccion": "CIRCUITO BOSQUES DE BOLOGNIA 198",
     "lat": 19.610926,
     "lng": -99.243001,
     "marca": "Shell"
  },
  {
     "direccion": "CARRETERA COACALCO TULTEPEC 17",
     "lat": 19.64243,
     "lng": -99.114477,
     "marca": "Shell"
  },
  {
     "direccion": "PLAN DE GUADALUPE VICTORIA",
     "lat": 19.62796,
     "lng": -99.237255,
     "marca": "Shell"
  },
  {
     "direccion": "AV. CLUB ROTARIO SUR 12",
     "lat": 19.664678,
     "lng": -99.128882,
     "marca": "Shell"
  },
  {
     "direccion": "TOLUCA S/N",
     "lat": 19.664678,
     "lng": -99.128882,
     "marca": "Shell"
  },
  {
     "direccion": "AV. RECURSOS HIDRAULICOS 202",
     "lat": 19.672255,
     "lng": -99.116782,
     "marca": "Shell"
  },
  {
     "direccion": "Carretera México Querétaro Km 37.5",
     "lat": 19.668731,
     "lng": -99.198362,
     "marca": "Shell"
  },
  {
     "direccion": "AVENIDA 16 DE SEPTIEMBRE",
     "lat": 19.679583,
     "lng": -99.143504,
     "marca": "Shell"
  },
  {
     "direccion": "CARRETERA A CUAUTITL 1-82A, MANZANA",
     "lat": 19.683957,
     "lng": -99.185735,
     "marca": "Shell"
  },
  {
     "direccion": "CALLE GARDENIAS 68",
     "lat": 19.692988,
     "lng": -99.258902,
     "marca": "Shell"
  },
  {
     "direccion": "JORGE ROJO LUGO ESQ LIBRAMIENTO TIZ",
     "lat": 19.848279,
     "lng": -98.973672,
     "marca": "Shell"
  },
  {
     "direccion": "AUTOPISTA MEXICO-PUEBLA 150",
     "lat": 19.323277,
     "lng": -98.523314,
     "marca": "Shell"
  },
  {
     "direccion": "CARRETERA FEDERAL PUEBLA-MEXICO 150",
     "lat": 19.326197,
     "lng": -98.521911,
     "marca": "Shell"
  },
  {
     "direccion": "CARRETERA MEXICO PACHUCA KM 69.3",
     "lat": 19.966534,
     "lng": -98.856353,
     "marca": "Shell"
  },
  {
     "direccion": "CARRETERA MEXICO-PACHUCA KM. 72 7",
     "lat": 19.979498,
     "lng": -98.849308,
     "marca": "Shell"
  },
  {
     "direccion": "CARRETERA TULA - JOROBAS KM 31. S/N",
     "lat": 20.057158,
     "lng": -99.297661,
     "marca": "Shell"
  },
  {
     "direccion": "FRACCIONAMIENTO LOS TUZOS, REFORMA",
     "lat": 20.056941,
     "lng": -98.759237,
     "marca": "Shell"
  },
  {
     "direccion": "Carretera Huasca San Mig Km. +0.400",
     "lat": 20.06629,
     "lng": -98.67427,
     "marca": "Shell"
  }
]